$GPGGA,025555.540,1847.047,N,09900.991,E,1,12,1.0,0.0,M,0.0,M,,*65
$GPGSA,A,3,01,02,03,04,05,06,07,08,09,10,11,12,1.0,1.0,1.0*30
$GPRMC,025555.540,A,1847.047,N,09900.991,E,038.9,177.1,030417,000.0,W*72
$GPGGA,025556.540,1847.036,N,09900.991,E,1,12,1.0,0.0,M,0.0,M,,*60
$GPGSA,A,3,01,02,03,04,05,06,07,08,09,10,11,12,1.0,1.0,1.0*30
$GPRMC,025556.540,A,1847.036,N,09900.991,E,038.9,177.1,030417,000.0,W*77
$GPGGA,025557.540,1847.025,N,09900.992,E,1,12,1.0,0.0,M,0.0,M,,*60
$GPGSA,A,3,01,02,03,04,05,06,07,08,09,10,11,12,1.0,1.0,1.0*30
$GPRMC,025557.540,A,1847.025,N,09900.992,E,038.9,177.1,030417,000.0,W*77
$GPGGA,025558.540,1847.015,N,09900.992,E,1,12,1.0,0.0,M,0.0,M,,*6C
$GPGSA,A,3,01,02,03,04,05,06,07,08,09,10,11,12,1.0,1.0,1.0*30
$GPRMC,025558.540,A,1847.015,N,09900.992,E,038.9,177.1,030417,000.0,W*7B
$GPGGA,025559.540,1847.004,N,09900.993,E,1,12,1.0,0.0,M,0.0,M,,*6C
$GPGSA,A,3,01,02,03,04,05,06,07,08,09,10,11,12,1.0,1.0,1.0*30
$GPRMC,025559.540,A,1847.004,N,09900.993,E,038.9,177.1,030417,000.0,W*7B
$GPGGA,025600.540,1846.993,N,09900.994,E,1,12,1.0,0.0,M,0.0,M,,*62
$GPGSA,A,3,01,02,03,04,05,06,07,08,09,10,11,12,1.0,1.0,1.0*30
$GPRMC,025600.540,A,1846.993,N,09900.994,E,038.9,177.1,030417,000.0,W*75
$GPGGA,025601.540,1846.982,N,09900.994,E,1,12,1.0,0.0,M,0.0,M,,*63
$GPGSA,A,3,01,02,03,04,05,06,07,08,09,10,11,12,1.0,1.0,1.0*30
$GPRMC,025601.540,A,1846.982,N,09900.994,E,038.9,177.1,030417,000.0,W*74
$GPGGA,025602.540,1846.972,N,09900.995,E,1,12,1.0,0.0,M,0.0,M,,*6E
$GPGSA,A,3,01,02,03,04,05,06,07,08,09,10,11,12,1.0,1.0,1.0*30
$GPRMC,025602.540,A,1846.972,N,09900.995,E,038.9,177.1,030417,000.0,W*79
$GPGGA,025603.540,1846.961,N,09900.995,E,1,12,1.0,0.0,M,0.0,M,,*6D
$GPGSA,A,3,01,02,03,04,05,06,07,08,09,10,11,12,1.0,1.0,1.0*30
$GPRMC,025603.540,A,1846.961,N,09900.995,E,038.9,177.1,030417,000.0,W*7A
$GPGGA,025604.540,1846.950,N,09900.996,E,1,12,1.0,0.0,M,0.0,M,,*6B
$GPGSA,A,3,01,02,03,04,05,06,07,08,09,10,11,12,1.0,1.0,1.0*30
$GPRMC,025604.540,A,1846.950,N,09900.996,E,038.9,177.1,030417,000.0,W*7C
$GPGGA,025605.540,1846.939,N,09900.996,E,1,12,1.0,0.0,M,0.0,M,,*65
$GPGSA,A,3,01,02,03,04,05,06,07,08,09,10,11,12,1.0,1.0,1.0*30
$GPRMC,025605.540,A,1846.939,N,09900.996,E,038.9,177.1,030417,000.0,W*72
$GPGGA,025606.540,1846.928,N,09900.997,E,1,12,1.0,0.0,M,0.0,M,,*67
$GPGSA,A,3,01,02,03,04,05,06,07,08,09,10,11,12,1.0,1.0,1.0*30
$GPRMC,025606.540,A,1846.928,N,09900.997,E,038.9,177.1,030417,000.0,W*70
$GPGGA,025607.540,1846.918,N,09900.997,E,1,12,1.0,0.0,M,0.0,M,,*65
$GPGSA,A,3,01,02,03,04,05,06,07,08,09,10,11,12,1.0,1.0,1.0*30
$GPRMC,025607.540,A,1846.918,N,09900.997,E,038.9,177.1,030417,000.0,W*72
$GPGGA,025608.540,1846.907,N,09900.998,E,1,12,1.0,0.0,M,0.0,M,,*6B
$GPGSA,A,3,01,02,03,04,05,06,07,08,09,10,11,12,1.0,1.0,1.0*30
$GPRMC,025608.540,A,1846.907,N,09900.998,E,038.9,177.1,030417,000.0,W*7C
$GPGGA,025609.540,1846.896,N,09900.998,E,1,12,1.0,0.0,M,0.0,M,,*63
$GPGSA,A,3,01,02,03,04,05,06,07,08,09,10,11,12,1.0,1.0,1.0*30
$GPRMC,025609.540,A,1846.896,N,09900.998,E,038.9,177.1,030417,000.0,W*74
$GPGGA,025610.540,1846.885,N,09900.999,E,1,12,1.0,0.0,M,0.0,M,,*68
$GPGSA,A,3,01,02,03,04,05,06,07,08,09,10,11,12,1.0,1.0,1.0*30
$GPRMC,025610.540,A,1846.885,N,09900.999,E,038.9,177.1,030417,000.0,W*7F
$GPGGA,025611.540,1846.875,N,09901.000,E,1,12,1.0,0.0,M,0.0,M,,*6E
$GPGSA,A,3,01,02,03,04,05,06,07,08,09,10,11,12,1.0,1.0,1.0*30
$GPRMC,025611.540,A,1846.875,N,09901.000,E,038.9,177.1,030417,000.0,W*79
$GPGGA,025612.540,1846.864,N,09901.000,E,1,12,1.0,0.0,M,0.0,M,,*6D
$GPGSA,A,3,01,02,03,04,05,06,07,08,09,10,11,12,1.0,1.0,1.0*30
$GPRMC,025612.540,A,1846.864,N,09901.000,E,038.9,177.1,030417,000.0,W*7A
$GPGGA,025613.540,1846.853,N,09901.001,E,1,12,1.0,0.0,M,0.0,M,,*69
$GPGSA,A,3,01,02,03,04,05,06,07,08,09,10,11,12,1.0,1.0,1.0*30
$GPRMC,025613.540,A,1846.853,N,09901.001,E,038.9,177.1,030417,000.0,W*7E
$GPGGA,025614.540,1846.842,N,09901.001,E,1,12,1.0,0.0,M,0.0,M,,*6E
$GPGSA,A,3,01,02,03,04,05,06,07,08,09,10,11,12,1.0,1.0,1.0*30
$GPRMC,025614.540,A,1846.842,N,09901.001,E,038.9,177.1,030417,000.0,W*79
$GPGGA,025615.540,1846.831,N,09901.002,E,1,12,1.0,0.0,M,0.0,M,,*68
$GPGSA,A,3,01,02,03,04,05,06,07,08,09,10,11,12,1.0,1.0,1.0*30
$GPRMC,025615.540,A,1846.831,N,09901.002,E,038.9,177.1,030417,000.0,W*7F
$GPGGA,025616.540,1846.821,N,09901.002,E,1,12,1.0,0.0,M,0.0,M,,*6A
$GPGSA,A,3,01,02,03,04,05,06,07,08,09,10,11,12,1.0,1.0,1.0*30
$GPRMC,025616.540,A,1846.821,N,09901.002,E,038.9,177.1,030417,000.0,W*7D
$GPGGA,025617.540,1846.810,N,09901.003,E,1,12,1.0,0.0,M,0.0,M,,*68
$GPGSA,A,3,01,02,03,04,05,06,07,08,09,10,11,12,1.0,1.0,1.0*30
$GPRMC,025617.540,A,1846.810,N,09901.003,E,038.9,177.1,030417,000.0,W*7F
$GPGGA,025618.540,1846.799,N,09901.003,E,1,12,1.0,0.0,M,0.0,M,,*69
$GPGSA,A,3,01,02,03,04,05,06,07,08,09,10,11,12,1.0,1.0,1.0*30
$GPRMC,025618.540,A,1846.799,N,09901.003,E,038.9,167.5,030417,000.0,W*7B
$GPGGA,025619.540,1846.789,N,09901.006,E,1,12,1.0,0.0,M,0.0,M,,*6C
$GPGSA,A,3,01,02,03,04,05,06,07,08,09,10,11,12,1.0,1.0,1.0*30
$GPRMC,025619.540,A,1846.789,N,09901.006,E,038.9,167.5,030417,000.0,W*7E
$GPGGA,025620.540,1846.778,N,09901.008,E,1,12,1.0,0.0,M,0.0,M,,*66
$GPGSA,A,3,01,02,03,04,05,06,07,08,09,10,11,12,1.0,1.0,1.0*30
$GPRMC,025620.540,A,1846.778,N,09901.008,E,038.9,167.5,030417,000.0,W*74
$GPGGA,025621.540,1846.767,N,09901.010,E,1,12,1.0,0.0,M,0.0,M,,*60
$GPGSA,A,3,01,02,03,04,05,06,07,08,09,10,11,12,1.0,1.0,1.0*30
$GPRMC,025621.540,A,1846.767,N,09901.010,E,038.9,167.5,030417,000.0,W*72
$GPGGA,025622.540,1846.757,N,09901.013,E,1,12,1.0,0.0,M,0.0,M,,*63
$GPGSA,A,3,01,02,03,04,05,06,07,08,09,10,11,12,1.0,1.0,1.0*30
$GPRMC,025622.540,A,1846.757,N,09901.013,E,038.9,167.5,030417,000.0,W*71
$GPGGA,025623.540,1846.746,N,09901.015,E,1,12,1.0,0.0,M,0.0,M,,*64
$GPGSA,A,3,01,02,03,04,05,06,07,08,09,10,11,12,1.0,1.0,1.0*30
$GPRMC,025623.540,A,1846.746,N,09901.015,E,038.9,167.5,030417,000.0,W*76
$GPGGA,025624.540,1846.736,N,09901.017,E,1,12,1.0,0.0,M,0.0,M,,*66
$GPGSA,A,3,01,02,03,04,05,06,07,08,09,10,11,12,1.0,1.0,1.0*30
$GPRMC,025624.540,A,1846.736,N,09901.017,E,038.9,178.5,030417,000.0,W*7A
$GPGGA,025625.540,1846.725,N,09901.018,E,1,12,1.0,0.0,M,0.0,M,,*6A
$GPGSA,A,3,01,02,03,04,05,06,07,08,09,10,11,12,1.0,1.0,1.0*30
$GPRMC,025625.540,A,1846.725,N,09901.018,E,038.9,178.5,030417,000.0,W*76
$GPGGA,025626.540,1846.714,N,09901.018,E,1,12,1.0,0.0,M,0.0,M,,*6B
$GPGSA,A,3,01,02,03,04,05,06,07,08,09,10,11,12,1.0,1.0,1.0*30
$GPRMC,025626.540,A,1846.714,N,09901.018,E,038.9,178.5,030417,000.0,W*77
$GPGGA,025627.540,1846.703,N,09901.018,E,1,12,1.0,0.0,M,0.0,M,,*6C
$GPGSA,A,3,01,02,03,04,05,06,07,08,09,10,11,12,1.0,1.0,1.0*30
$GPRMC,025627.540,A,1846.703,N,09901.018,E,038.9,178.5,030417,000.0,W*70
$GPGGA,025628.540,1846.693,N,09901.019,E,1,12,1.0,0.0,M,0.0,M,,*6A
$GPGSA,A,3,01,02,03,04,05,06,07,08,09,10,11,12,1.0,1.0,1.0*30
$GPRMC,025628.540,A,1846.693,N,09901.019,E,038.9,178.5,030417,000.0,W*76
$GPGGA,025629.540,1846.682,N,09901.019,E,1,12,1.0,0.0,M,0.0,M,,*6B
$GPGSA,A,3,01,02,03,04,05,06,07,08,09,10,11,12,1.0,1.0,1.0*30
$GPRMC,025629.540,A,1846.682,N,09901.019,E,038.9,178.5,030417,000.0,W*77
$GPGGA,025630.540,1846.671,N,09901.019,E,1,12,1.0,0.0,M,0.0,M,,*6F
$GPGSA,A,3,01,02,03,04,05,06,07,08,09,10,11,12,1.0,1.0,1.0*30
$GPRMC,025630.540,A,1846.671,N,09901.019,E,038.9,178.5,030417,000.0,W*73
$GPGGA,025631.540,1846.660,N,09901.019,E,1,12,1.0,0.0,M,0.0,M,,*6E
$GPGSA,A,3,01,02,03,04,05,06,07,08,09,10,11,12,1.0,1.0,1.0*30
$GPRMC,025631.540,A,1846.660,N,09901.019,E,038.9,178.5,030417,000.0,W*72
$GPGGA,025632.540,1846.649,N,09901.020,E,1,12,1.0,0.0,M,0.0,M,,*6C
$GPGSA,A,3,01,02,03,04,05,06,07,08,09,10,11,12,1.0,1.0,1.0*30
$GPRMC,025632.540,A,1846.649,N,09901.020,E,038.9,178.5,030417,000.0,W*70
$GPGGA,025633.540,1846.639,N,09901.020,E,1,12,1.0,0.0,M,0.0,M,,*6A
$GPGSA,A,3,01,02,03,04,05,06,07,08,09,10,11,12,1.0,1.0,1.0*30
$GPRMC,025633.540,A,1846.639,N,09901.020,E,038.9,178.5,030417,000.0,W*76
$GPGGA,025634.540,1846.628,N,09901.020,E,1,12,1.0,0.0,M,0.0,M,,*6D
$GPGSA,A,3,01,02,03,04,05,06,07,08,09,10,11,12,1.0,1.0,1.0*30
$GPRMC,025634.540,A,1846.628,N,09901.020,E,038.9,178.5,030417,000.0,W*71
$GPGGA,025635.540,1846.617,N,09901.021,E,1,12,1.0,0.0,M,0.0,M,,*61
$GPGSA,A,3,01,02,03,04,05,06,07,08,09,10,11,12,1.0,1.0,1.0*30
$GPRMC,025635.540,A,1846.617,N,09901.021,E,038.9,178.5,030417,000.0,W*7D
$GPGGA,025636.540,1846.606,N,09901.021,E,1,12,1.0,0.0,M,0.0,M,,*62
$GPGSA,A,3,01,02,03,04,05,06,07,08,09,10,11,12,1.0,1.0,1.0*30
$GPRMC,025636.540,A,1846.606,N,09901.021,E,038.9,178.5,030417,000.0,W*7E
$GPGGA,025637.540,1846.595,N,09901.021,E,1,12,1.0,0.0,M,0.0,M,,*6A
$GPGSA,A,3,01,02,03,04,05,06,07,08,09,10,11,12,1.0,1.0,1.0*30
$GPRMC,025637.540,A,1846.595,N,09901.021,E,038.9,178.5,030417,000.0,W*76
$GPGGA,025638.540,1846.585,N,09901.021,E,1,12,1.0,0.0,M,0.0,M,,*64
$GPGSA,A,3,01,02,03,04,05,06,07,08,09,10,11,12,1.0,1.0,1.0*30
$GPRMC,025638.540,A,1846.585,N,09901.021,E,038.9,178.5,030417,000.0,W*78
$GPGGA,025639.540,1846.574,N,09901.022,E,1,12,1.0,0.0,M,0.0,M,,*68
$GPGSA,A,3,01,02,03,04,05,06,07,08,09,10,11,12,1.0,1.0,1.0*30
$GPRMC,025639.540,A,1846.574,N,09901.022,E,038.9,178.5,030417,000.0,W*74
$GPGGA,025640.540,1846.563,N,09901.022,E,1,12,1.0,0.0,M,0.0,M,,*60
$GPGSA,A,3,01,02,03,04,05,06,07,08,09,10,11,12,1.0,1.0,1.0*30
$GPRMC,025640.540,A,1846.563,N,09901.022,E,038.9,178.5,030417,000.0,W*7C
$GPGGA,025641.540,1846.552,N,09901.022,E,1,12,1.0,0.0,M,0.0,M,,*63
$GPGSA,A,3,01,02,03,04,05,06,07,08,09,10,11,12,1.0,1.0,1.0*30
$GPRMC,025641.540,A,1846.552,N,09901.022,E,038.9,178.5,030417,000.0,W*7F
$GPGGA,025642.540,1846.542,N,09901.023,E,1,12,1.0,0.0,M,0.0,M,,*60
$GPGSA,A,3,01,02,03,04,05,06,07,08,09,10,11,12,1.0,1.0,1.0*30
$GPRMC,025642.540,A,1846.542,N,09901.023,E,038.9,178.5,030417,000.0,W*7C
$GPGGA,025643.540,1846.531,N,09901.023,E,1,12,1.0,0.0,M,0.0,M,,*65
$GPGSA,A,3,01,02,03,04,05,06,07,08,09,10,11,12,1.0,1.0,1.0*30
$GPRMC,025643.540,A,1846.531,N,09901.023,E,038.9,178.5,030417,000.0,W*79
$GPGGA,025644.540,1846.520,N,09901.023,E,1,12,1.0,0.0,M,0.0,M,,*62
$GPGSA,A,3,01,02,03,04,05,06,07,08,09,10,11,12,1.0,1.0,1.0*30
$GPRMC,025644.540,A,1846.520,N,09901.023,E,038.9,178.5,030417,000.0,W*7E
$GPGGA,025645.540,1846.509,N,09901.023,E,1,12,1.0,0.0,M,0.0,M,,*68
$GPGSA,A,3,01,02,03,04,05,06,07,08,09,10,11,12,1.0,1.0,1.0*30
$GPRMC,025645.540,A,1846.509,N,09901.023,E,038.9,178.5,030417,000.0,W*74
$GPGGA,025646.540,1846.498,N,09901.024,E,1,12,1.0,0.0,M,0.0,M,,*65
$GPGSA,A,3,01,02,03,04,05,06,07,08,09,10,11,12,1.0,1.0,1.0*30
$GPRMC,025646.540,A,1846.498,N,09901.024,E,038.9,178.5,030417,000.0,W*79
$GPGGA,025647.540,1846.488,N,09901.024,E,1,12,1.0,0.0,M,0.0,M,,*65
$GPGSA,A,3,01,02,03,04,05,06,07,08,09,10,11,12,1.0,1.0,1.0*30
$GPRMC,025647.540,A,1846.488,N,09901.024,E,038.9,178.5,030417,000.0,W*79
$GPGGA,025648.540,1846.477,N,09901.024,E,1,12,1.0,0.0,M,0.0,M,,*6A
$GPGSA,A,3,01,02,03,04,05,06,07,08,09,10,11,12,1.0,1.0,1.0*30
$GPRMC,025648.540,A,1846.477,N,09901.024,E,038.9,178.5,030417,000.0,W*76
$GPGGA,025649.540,1846.466,N,09901.025,E,1,12,1.0,0.0,M,0.0,M,,*6A
$GPGSA,A,3,01,02,03,04,05,06,07,08,09,10,11,12,1.0,1.0,1.0*30
$GPRMC,025649.540,A,1846.466,N,09901.025,E,038.9,178.5,030417,000.0,W*76
$GPGGA,025650.540,1846.455,N,09901.025,E,1,12,1.0,0.0,M,0.0,M,,*62
$GPGSA,A,3,01,02,03,04,05,06,07,08,09,10,11,12,1.0,1.0,1.0*30
$GPRMC,025650.540,A,1846.455,N,09901.025,E,038.9,178.5,030417,000.0,W*7E
$GPGGA,025651.540,1846.444,N,09901.025,E,1,12,1.0,0.0,M,0.0,M,,*63
$GPGSA,A,3,01,02,03,04,05,06,07,08,09,10,11,12,1.0,1.0,1.0*30
$GPRMC,025651.540,A,1846.444,N,09901.025,E,038.9,178.5,030417,000.0,W*7F
$GPGGA,025652.540,1846.434,N,09901.026,E,1,12,1.0,0.0,M,0.0,M,,*64
$GPGSA,A,3,01,02,03,04,05,06,07,08,09,10,11,12,1.0,1.0,1.0*30
$GPRMC,025652.540,A,1846.434,N,09901.026,E,038.9,178.5,030417,000.0,W*78
$GPGGA,025653.540,1846.423,N,09901.026,E,1,12,1.0,0.0,M,0.0,M,,*63
$GPGSA,A,3,01,02,03,04,05,06,07,08,09,10,11,12,1.0,1.0,1.0*30
$GPRMC,025653.540,A,1846.423,N,09901.026,E,038.9,178.5,030417,000.0,W*7F
$GPGGA,025654.540,1846.412,N,09901.026,E,1,12,1.0,0.0,M,0.0,M,,*66
$GPGSA,A,3,01,02,03,04,05,06,07,08,09,10,11,12,1.0,1.0,1.0*30
$GPRMC,025654.540,A,1846.412,N,09901.026,E,038.9,178.5,030417,000.0,W*7A
$GPGGA,025655.540,1846.401,N,09901.026,E,1,12,1.0,0.0,M,0.0,M,,*65
$GPGSA,A,3,01,02,03,04,05,06,07,08,09,10,11,12,1.0,1.0,1.0*30
$GPRMC,025655.540,A,1846.401,N,09901.026,E,038.9,178.5,030417,000.0,W*79
$GPGGA,025656.540,1846.390,N,09901.027,E,1,12,1.0,0.0,M,0.0,M,,*68
$GPGSA,A,3,01,02,03,04,05,06,07,08,09,10,11,12,1.0,1.0,1.0*30
$GPRMC,025656.540,A,1846.390,N,09901.027,E,038.9,178.5,030417,000.0,W*74
$GPGGA,025657.540,1846.380,N,09901.027,E,1,12,1.0,0.0,M,0.0,M,,*68
$GPGSA,A,3,01,02,03,04,05,06,07,08,09,10,11,12,1.0,1.0,1.0*30
$GPRMC,025657.540,A,1846.380,N,09901.027,E,038.9,178.5,030417,000.0,W*74
$GPGGA,025658.540,1846.369,N,09901.027,E,1,12,1.0,0.0,M,0.0,M,,*60
$GPGSA,A,3,01,02,03,04,05,06,07,08,09,10,11,12,1.0,1.0,1.0*30
$GPRMC,025658.540,A,1846.369,N,09901.027,E,038.9,178.5,030417,000.0,W*7C
$GPGGA,025659.540,1846.358,N,09901.028,E,1,12,1.0,0.0,M,0.0,M,,*6C
$GPGSA,A,3,01,02,03,04,05,06,07,08,09,10,11,12,1.0,1.0,1.0*30
$GPRMC,025659.540,A,1846.358,N,09901.028,E,038.9,178.5,030417,000.0,W*70
$GPGGA,025700.540,1846.347,N,09901.028,E,1,12,1.0,0.0,M,0.0,M,,*6F
$GPGSA,A,3,01,02,03,04,05,06,07,08,09,10,11,12,1.0,1.0,1.0*30
$GPRMC,025700.540,A,1846.347,N,09901.028,E,038.9,178.5,030417,000.0,W*73
$GPGGA,025701.540,1846.337,N,09901.028,E,1,12,1.0,0.0,M,0.0,M,,*69
$GPGSA,A,3,01,02,03,04,05,06,07,08,09,10,11,12,1.0,1.0,1.0*30
$GPRMC,025701.540,A,1846.337,N,09901.028,E,038.9,178.5,030417,000.0,W*75
$GPGGA,025702.540,1846.326,N,09901.028,E,1,12,1.0,0.0,M,0.0,M,,*6A
$GPGSA,A,3,01,02,03,04,05,06,07,08,09,10,11,12,1.0,1.0,1.0*30
$GPRMC,025702.540,A,1846.326,N,09901.028,E,038.9,178.5,030417,000.0,W*76
$GPGGA,025703.540,1846.315,N,09901.029,E,1,12,1.0,0.0,M,0.0,M,,*6A
$GPGSA,A,3,01,02,03,04,05,06,07,08,09,10,11,12,1.0,1.0,1.0*30
$GPRMC,025703.540,A,1846.315,N,09901.029,E,038.9,178.5,030417,000.0,W*76
$GPGGA,025704.540,1846.304,N,09901.029,E,1,12,1.0,0.0,M,0.0,M,,*6D
$GPGSA,A,3,01,02,03,04,05,06,07,08,09,10,11,12,1.0,1.0,1.0*30
$GPRMC,025704.540,A,1846.304,N,09901.029,E,038.9,178.5,030417,000.0,W*71
$GPGGA,025705.540,1846.293,N,09901.029,E,1,12,1.0,0.0,M,0.0,M,,*63
$GPGSA,A,3,01,02,03,04,05,06,07,08,09,10,11,12,1.0,1.0,1.0*30
$GPRMC,025705.540,A,1846.293,N,09901.029,E,038.9,180.0,030417,000.0,W*7D
$GPGGA,025706.540,1846.283,N,09901.029,E,1,12,1.0,0.0,M,0.0,M,,*61
$GPGSA,A,3,01,02,03,04,05,06,07,08,09,10,11,12,1.0,1.0,1.0*30
$GPRMC,025706.540,A,1846.283,N,09901.029,E,038.9,180.0,030417,000.0,W*7F
$GPGGA,025707.540,1846.272,N,09901.029,E,1,12,1.0,0.0,M,0.0,M,,*6E
$GPGSA,A,3,01,02,03,04,05,06,07,08,09,10,11,12,1.0,1.0,1.0*30
$GPRMC,025707.540,A,1846.272,N,09901.029,E,038.9,180.0,030417,000.0,W*70
$GPGGA,025708.540,1846.261,N,09901.029,E,1,12,1.0,0.0,M,0.0,M,,*63
$GPGSA,A,3,01,02,03,04,05,06,07,08,09,10,11,12,1.0,1.0,1.0*30
$GPRMC,025708.540,A,1846.261,N,09901.029,E,038.9,180.0,030417,000.0,W*7D
$GPGGA,025709.540,1846.250,N,09901.029,E,1,12,1.0,0.0,M,0.0,M,,*60
$GPGSA,A,3,01,02,03,04,05,06,07,08,09,10,11,12,1.0,1.0,1.0*30
$GPRMC,025709.540,A,1846.250,N,09901.029,E,038.9,180.0,030417,000.0,W*7E
$GPGGA,025710.540,1846.239,N,09901.029,E,1,12,1.0,0.0,M,0.0,M,,*67
$GPGSA,A,3,01,02,03,04,05,06,07,08,09,10,11,12,1.0,1.0,1.0*30
$GPRMC,025710.540,A,1846.239,N,09901.029,E,038.9,180.0,030417,000.0,W*79
$GPGGA,025711.540,1846.229,N,09901.029,E,1,12,1.0,0.0,M,0.0,M,,*67
$GPGSA,A,3,01,02,03,04,05,06,07,08,09,10,11,12,1.0,1.0,1.0*30
$GPRMC,025711.540,A,1846.229,N,09901.029,E,038.9,180.0,030417,000.0,W*79
$GPGGA,025712.540,1846.218,N,09901.029,E,1,12,1.0,0.0,M,0.0,M,,*66
$GPGSA,A,3,01,02,03,04,05,06,07,08,09,10,11,12,1.0,1.0,1.0*30
$GPRMC,025712.540,A,1846.218,N,09901.029,E,038.9,180.0,030417,000.0,W*78
$GPGGA,025713.540,1846.207,N,09901.029,E,1,12,1.0,0.0,M,0.0,M,,*69
$GPGSA,A,3,01,02,03,04,05,06,07,08,09,10,11,12,1.0,1.0,1.0*30
$GPRMC,025713.540,A,1846.207,N,09901.029,E,038.9,180.0,030417,000.0,W*77
$GPGGA,025714.540,1846.196,N,09901.029,E,1,12,1.0,0.0,M,0.0,M,,*65
$GPGSA,A,3,01,02,03,04,05,06,07,08,09,10,11,12,1.0,1.0,1.0*30
$GPRMC,025714.540,A,1846.196,N,09901.029,E,038.9,180.0,030417,000.0,W*7B
$GPGGA,025715.540,1846.185,N,09901.029,E,1,12,1.0,0.0,M,0.0,M,,*66
$GPGSA,A,3,01,02,03,04,05,06,07,08,09,10,11,12,1.0,1.0,1.0*30
$GPRMC,025715.540,A,1846.185,N,09901.029,E,038.9,180.0,030417,000.0,W*78
$GPGGA,025716.540,1846.175,N,09901.029,E,1,12,1.0,0.0,M,0.0,M,,*6A
$GPGSA,A,3,01,02,03,04,05,06,07,08,09,10,11,12,1.0,1.0,1.0*30
$GPRMC,025716.540,A,1846.175,N,09901.029,E,038.9,180.0,030417,000.0,W*74
$GPGGA,025717.540,1846.164,N,09901.029,E,1,12,1.0,0.0,M,0.0,M,,*6B
$GPGSA,A,3,01,02,03,04,05,06,07,08,09,10,11,12,1.0,1.0,1.0*30
$GPRMC,025717.540,A,1846.164,N,09901.029,E,038.9,180.0,030417,000.0,W*75
$GPGGA,025718.540,1846.153,N,09901.029,E,1,12,1.0,0.0,M,0.0,M,,*60
$GPGSA,A,3,01,02,03,04,05,06,07,08,09,10,11,12,1.0,1.0,1.0*30
$GPRMC,025718.540,A,1846.153,N,09901.029,E,038.9,180.0,030417,000.0,W*7E
$GPGGA,025719.540,1846.142,N,09901.029,E,1,12,1.0,0.0,M,0.0,M,,*61
$GPGSA,A,3,01,02,03,04,05,06,07,08,09,10,11,12,1.0,1.0,1.0*30
$GPRMC,025719.540,A,1846.142,N,09901.029,E,038.9,180.0,030417,000.0,W*7F
$GPGGA,025720.540,1846.132,N,09901.029,E,1,12,1.0,0.0,M,0.0,M,,*6C
$GPGSA,A,3,01,02,03,04,05,06,07,08,09,10,11,12,1.0,1.0,1.0*30
$GPRMC,025720.540,A,1846.132,N,09901.029,E,038.9,180.0,030417,000.0,W*72
$GPGGA,025721.540,1846.121,N,09901.029,E,1,12,1.0,0.0,M,0.0,M,,*6F
$GPGSA,A,3,01,02,03,04,05,06,07,08,09,10,11,12,1.0,1.0,1.0*30
$GPRMC,025721.540,A,1846.121,N,09901.029,E,038.9,173.6,030417,000.0,W*7B
$GPGGA,025722.540,1846.110,N,09901.031,E,1,12,1.0,0.0,M,0.0,M,,*67
$GPGSA,A,3,01,02,03,04,05,06,07,08,09,10,11,12,1.0,1.0,1.0*30
$GPRMC,025722.540,A,1846.110,N,09901.031,E,038.9,173.6,030417,000.0,W*73
$GPGGA,025723.540,1846.099,N,09901.032,E,1,12,1.0,0.0,M,0.0,M,,*65
$GPGSA,A,3,01,02,03,04,05,06,07,08,09,10,11,12,1.0,1.0,1.0*30
$GPRMC,025723.540,A,1846.099,N,09901.032,E,038.9,173.6,030417,000.0,W*71
$GPGGA,025724.540,1846.089,N,09901.033,E,1,12,1.0,0.0,M,0.0,M,,*62
$GPGSA,A,3,01,02,03,04,05,06,07,08,09,10,11,12,1.0,1.0,1.0*30
$GPRMC,025724.540,A,1846.089,N,09901.033,E,038.9,173.6,030417,000.0,W*76
$GPGGA,025725.540,1846.078,N,09901.034,E,1,12,1.0,0.0,M,0.0,M,,*6A
$GPGSA,A,3,01,02,03,04,05,06,07,08,09,10,11,12,1.0,1.0,1.0*30
$GPRMC,025725.540,A,1846.078,N,09901.034,E,038.9,173.6,030417,000.0,W*7E
$GPGGA,025726.540,1846.067,N,09901.036,E,1,12,1.0,0.0,M,0.0,M,,*65
$GPGSA,A,3,01,02,03,04,05,06,07,08,09,10,11,12,1.0,1.0,1.0*30
$GPRMC,025726.540,A,1846.067,N,09901.036,E,038.9,173.6,030417,000.0,W*71
$GPGGA,025727.540,1846.056,N,09901.037,E,1,12,1.0,0.0,M,0.0,M,,*67
$GPGSA,A,3,01,02,03,04,05,06,07,08,09,10,11,12,1.0,1.0,1.0*30
$GPRMC,025727.540,A,1846.056,N,09901.037,E,038.9,170.2,030417,000.0,W*74
$GPGGA,025728.540,1846.046,N,09901.039,E,1,12,1.0,0.0,M,0.0,M,,*67
$GPGSA,A,3,01,02,03,04,05,06,07,08,09,10,11,12,1.0,1.0,1.0*30
$GPRMC,025728.540,A,1846.046,N,09901.039,E,038.9,170.2,030417,000.0,W*74
$GPGGA,025729.540,1846.035,N,09901.040,E,1,12,1.0,0.0,M,0.0,M,,*6C
$GPGSA,A,3,01,02,03,04,05,06,07,08,09,10,11,12,1.0,1.0,1.0*30
$GPRMC,025729.540,A,1846.035,N,09901.040,E,038.9,170.2,030417,000.0,W*7F
$GPGGA,025730.540,1846.024,N,09901.042,E,1,12,1.0,0.0,M,0.0,M,,*66
$GPGSA,A,3,01,02,03,04,05,06,07,08,09,10,11,12,1.0,1.0,1.0*30
$GPRMC,025730.540,A,1846.024,N,09901.042,E,038.9,170.2,030417,000.0,W*75
$GPGGA,025731.540,1846.014,N,09901.044,E,1,12,1.0,0.0,M,0.0,M,,*62
$GPGSA,A,3,01,02,03,04,05,06,07,08,09,10,11,12,1.0,1.0,1.0*30
$GPRMC,025731.540,A,1846.014,N,09901.044,E,038.9,170.2,030417,000.0,W*71
$GPGGA,025732.540,1846.003,N,09901.046,E,1,12,1.0,0.0,M,0.0,M,,*65
$GPGSA,A,3,01,02,03,04,05,06,07,08,09,10,11,12,1.0,1.0,1.0*30
$GPRMC,025732.540,A,1846.003,N,09901.046,E,038.9,155.1,030417,000.0,W*72
$GPGGA,025733.540,1845.993,N,09901.050,E,1,12,1.0,0.0,M,0.0,M,,*60
$GPGSA,A,3,01,02,03,04,05,06,07,08,09,10,11,12,1.0,1.0,1.0*30
$GPRMC,025733.540,A,1845.993,N,09901.050,E,038.9,155.1,030417,000.0,W*77
$GPGGA,025734.540,1845.983,N,09901.055,E,1,12,1.0,0.0,M,0.0,M,,*63
$GPGSA,A,3,01,02,03,04,05,06,07,08,09,10,11,12,1.0,1.0,1.0*30
$GPRMC,025734.540,A,1845.983,N,09901.055,E,038.9,155.1,030417,000.0,W*74
$GPGGA,025735.540,1845.973,N,09901.060,E,1,12,1.0,0.0,M,0.0,M,,*6B
$GPGSA,A,3,01,02,03,04,05,06,07,08,09,10,11,12,1.0,1.0,1.0*30
$GPRMC,025735.540,A,1845.973,N,09901.060,E,038.9,155.1,030417,000.0,W*7C
$GPGGA,025736.540,1845.964,N,09901.064,E,1,12,1.0,0.0,M,0.0,M,,*6A
$GPGSA,A,3,01,02,03,04,05,06,07,08,09,10,11,12,1.0,1.0,1.0*30
$GPRMC,025736.540,A,1845.964,N,09901.064,E,038.9,155.1,030417,000.0,W*7D
$GPGGA,025737.540,1845.954,N,09901.069,E,1,12,1.0,0.0,M,0.0,M,,*65
$GPGSA,A,3,01,02,03,04,05,06,07,08,09,10,11,12,1.0,1.0,1.0*30
$GPRMC,025737.540,A,1845.954,N,09901.069,E,038.9,155.1,030417,000.0,W*72
$GPGGA,025738.540,1845.944,N,09901.073,E,1,12,1.0,0.0,M,0.0,M,,*60
$GPGSA,A,3,01,02,03,04,05,06,07,08,09,10,11,12,1.0,1.0,1.0*30
$GPRMC,025738.540,A,1845.944,N,09901.073,E,038.9,155.1,030417,000.0,W*77
$GPGGA,025739.540,1845.934,N,09901.078,E,1,12,1.0,0.0,M,0.0,M,,*6D
$GPGSA,A,3,01,02,03,04,05,06,07,08,09,10,11,12,1.0,1.0,1.0*30
$GPRMC,025739.540,A,1845.934,N,09901.078,E,038.9,155.1,030417,000.0,W*7A
$GPGGA,025740.540,1845.924,N,09901.083,E,1,12,1.0,0.0,M,0.0,M,,*66
$GPGSA,A,3,01,02,03,04,05,06,07,08,09,10,11,12,1.0,1.0,1.0*30
$GPRMC,025740.540,A,1845.924,N,09901.083,E,038.9,155.1,030417,000.0,W*71
$GPGGA,025741.540,1845.914,N,09901.087,E,1,12,1.0,0.0,M,0.0,M,,*60
$GPGSA,A,3,01,02,03,04,05,06,07,08,09,10,11,12,1.0,1.0,1.0*30
$GPRMC,025741.540,A,1845.914,N,09901.087,E,038.9,155.1,030417,000.0,W*77
$GPGGA,025742.540,1845.904,N,09901.092,E,1,12,1.0,0.0,M,0.0,M,,*66
$GPGSA,A,3,01,02,03,04,05,06,07,08,09,10,11,12,1.0,1.0,1.0*30
$GPRMC,025742.540,A,1845.904,N,09901.092,E,038.9,155.1,030417,000.0,W*71
$GPGGA,025743.540,1845.894,N,09901.096,E,1,12,1.0,0.0,M,0.0,M,,*6B
$GPGSA,A,3,01,02,03,04,05,06,07,08,09,10,11,12,1.0,1.0,1.0*30
$GPRMC,025743.540,A,1845.894,N,09901.096,E,038.9,155.1,030417,000.0,W*7C
$GPGGA,025744.540,1845.885,N,09901.101,E,1,12,1.0,0.0,M,0.0,M,,*63
$GPGSA,A,3,01,02,03,04,05,06,07,08,09,10,11,12,1.0,1.0,1.0*30
$GPRMC,025744.540,A,1845.885,N,09901.101,E,038.9,155.1,030417,000.0,W*74
$GPGGA,025745.540,1845.875,N,09901.105,E,1,12,1.0,0.0,M,0.0,M,,*69
$GPGSA,A,3,01,02,03,04,05,06,07,08,09,10,11,12,1.0,1.0,1.0*30
$GPRMC,025745.540,A,1845.875,N,09901.105,E,038.9,156.7,030417,000.0,W*7B
$GPGGA,025746.540,1845.865,N,09901.110,E,1,12,1.0,0.0,M,0.0,M,,*6F
$GPGSA,A,3,01,02,03,04,05,06,07,08,09,10,11,12,1.0,1.0,1.0*30
$GPRMC,025746.540,A,1845.865,N,09901.110,E,038.9,156.7,030417,000.0,W*7D
$GPGGA,025747.540,1845.855,N,09901.114,E,1,12,1.0,0.0,M,0.0,M,,*69
$GPGSA,A,3,01,02,03,04,05,06,07,08,09,10,11,12,1.0,1.0,1.0*30
$GPRMC,025747.540,A,1845.855,N,09901.114,E,038.9,156.7,030417,000.0,W*7B
$GPGGA,025748.540,1845.845,N,09901.118,E,1,12,1.0,0.0,M,0.0,M,,*6B
$GPGSA,A,3,01,02,03,04,05,06,07,08,09,10,11,12,1.0,1.0,1.0*30
$GPRMC,025748.540,A,1845.845,N,09901.118,E,038.9,156.7,030417,000.0,W*79
$GPGGA,025749.540,1845.835,N,09901.123,E,1,12,1.0,0.0,M,0.0,M,,*65
$GPGSA,A,3,01,02,03,04,05,06,07,08,09,10,11,12,1.0,1.0,1.0*30
$GPRMC,025749.540,A,1845.835,N,09901.123,E,038.9,156.7,030417,000.0,W*77
$GPGGA,025750.540,1845.825,N,09901.127,E,1,12,1.0,0.0,M,0.0,M,,*68
$GPGSA,A,3,01,02,03,04,05,06,07,08,09,10,11,12,1.0,1.0,1.0*30
$GPRMC,025750.540,A,1845.825,N,09901.127,E,038.9,156.7,030417,000.0,W*7A
$GPGGA,025751.540,1845.815,N,09901.131,E,1,12,1.0,0.0,M,0.0,M,,*6D
$GPGSA,A,3,01,02,03,04,05,06,07,08,09,10,11,12,1.0,1.0,1.0*30
$GPRMC,025751.540,A,1845.815,N,09901.131,E,038.9,156.7,030417,000.0,W*7F
$GPGGA,025752.540,1845.805,N,09901.136,E,1,12,1.0,0.0,M,0.0,M,,*68
$GPGSA,A,3,01,02,03,04,05,06,07,08,09,10,11,12,1.0,1.0,1.0*30
$GPRMC,025752.540,A,1845.805,N,09901.136,E,038.9,156.7,030417,000.0,W*7A
$GPGGA,025753.540,1845.795,N,09901.140,E,1,12,1.0,0.0,M,0.0,M,,*6E
$GPGSA,A,3,01,02,03,04,05,06,07,08,09,10,11,12,1.0,1.0,1.0*30
$GPRMC,025753.540,A,1845.795,N,09901.140,E,038.9,156.7,030417,000.0,W*7C
$GPGGA,025754.540,1845.785,N,09901.144,E,1,12,1.0,0.0,M,0.0,M,,*6C
$GPGSA,A,3,01,02,03,04,05,06,07,08,09,10,11,12,1.0,1.0,1.0*30
$GPRMC,025754.540,A,1845.785,N,09901.144,E,038.9,156.7,030417,000.0,W*7E
$GPGGA,025755.540,1845.775,N,09901.149,E,1,12,1.0,0.0,M,0.0,M,,*6F
$GPGSA,A,3,01,02,03,04,05,06,07,08,09,10,11,12,1.0,1.0,1.0*30
$GPRMC,025755.540,A,1845.775,N,09901.149,E,038.9,156.7,030417,000.0,W*7D
$GPGGA,025756.540,1845.765,N,09901.153,E,1,12,1.0,0.0,M,0.0,M,,*66
$GPGSA,A,3,01,02,03,04,05,06,07,08,09,10,11,12,1.0,1.0,1.0*30
$GPRMC,025756.540,A,1845.765,N,09901.153,E,038.9,156.7,030417,000.0,W*74
$GPGGA,025757.540,1845.755,N,09901.157,E,1,12,1.0,0.0,M,0.0,M,,*60
$GPGSA,A,3,01,02,03,04,05,06,07,08,09,10,11,12,1.0,1.0,1.0*30
$GPRMC,025757.540,A,1845.755,N,09901.157,E,038.9,156.7,030417,000.0,W*72
$GPGGA,025758.540,1845.745,N,09901.162,E,1,12,1.0,0.0,M,0.0,M,,*68
$GPGSA,A,3,01,02,03,04,05,06,07,08,09,10,11,12,1.0,1.0,1.0*30
$GPRMC,025758.540,A,1845.745,N,09901.162,E,038.9,156.7,030417,000.0,W*7A
$GPGGA,025759.540,1845.735,N,09901.166,E,1,12,1.0,0.0,M,0.0,M,,*6A
$GPGSA,A,3,01,02,03,04,05,06,07,08,09,10,11,12,1.0,1.0,1.0*30
$GPRMC,025759.540,A,1845.735,N,09901.166,E,038.9,156.7,030417,000.0,W*78
$GPGGA,025800.540,1845.725,N,09901.170,E,1,12,1.0,0.0,M,0.0,M,,*6F
$GPGSA,A,3,01,02,03,04,05,06,07,08,09,10,11,12,1.0,1.0,1.0*30
$GPRMC,025800.540,A,1845.725,N,09901.170,E,038.9,156.7,030417,000.0,W*7D
$GPGGA,025801.540,1845.715,N,09901.174,E,1,12,1.0,0.0,M,0.0,M,,*69
$GPGSA,A,3,01,02,03,04,05,06,07,08,09,10,11,12,1.0,1.0,1.0*30
$GPRMC,025801.540,A,1845.715,N,09901.174,E,038.9,156.7,030417,000.0,W*7B
$GPGGA,025802.540,1845.705,N,09901.179,E,1,12,1.0,0.0,M,0.0,M,,*66
$GPGSA,A,3,01,02,03,04,05,06,07,08,09,10,11,12,1.0,1.0,1.0*30
$GPRMC,025802.540,A,1845.705,N,09901.179,E,038.9,156.7,030417,000.0,W*74
$GPGGA,025803.540,1845.695,N,09901.183,E,1,12,1.0,0.0,M,0.0,M,,*6A
$GPGSA,A,3,01,02,03,04,05,06,07,08,09,10,11,12,1.0,1.0,1.0*30
$GPRMC,025803.540,A,1845.695,N,09901.183,E,038.9,156.7,030417,000.0,W*78
$GPGGA,025804.540,1845.685,N,09901.187,E,1,12,1.0,0.0,M,0.0,M,,*68
$GPGSA,A,3,01,02,03,04,05,06,07,08,09,10,11,12,1.0,1.0,1.0*30
$GPRMC,025804.540,A,1845.685,N,09901.187,E,038.9,156.7,030417,000.0,W*7A
$GPGGA,025805.540,1845.675,N,09901.192,E,1,12,1.0,0.0,M,0.0,M,,*62
$GPGSA,A,3,01,02,03,04,05,06,07,08,09,10,11,12,1.0,1.0,1.0*30
$GPRMC,025805.540,A,1845.675,N,09901.192,E,038.9,156.7,030417,000.0,W*70
$GPGGA,025806.540,1845.665,N,09901.196,E,1,12,1.0,0.0,M,0.0,M,,*64
$GPGSA,A,3,01,02,03,04,05,06,07,08,09,10,11,12,1.0,1.0,1.0*30
$GPRMC,025806.540,A,1845.665,N,09901.196,E,038.9,156.7,030417,000.0,W*76
$GPGGA,025807.540,1845.655,N,09901.200,E,1,12,1.0,0.0,M,0.0,M,,*6A
$GPGSA,A,3,01,02,03,04,05,06,07,08,09,10,11,12,1.0,1.0,1.0*30
$GPRMC,025807.540,A,1845.655,N,09901.200,E,038.9,156.7,030417,000.0,W*78
$GPGGA,025808.540,1845.645,N,09901.205,E,1,12,1.0,0.0,M,0.0,M,,*61
$GPGSA,A,3,01,02,03,04,05,06,07,08,09,10,11,12,1.0,1.0,1.0*30
$GPRMC,025808.540,A,1845.645,N,09901.205,E,038.9,156.7,030417,000.0,W*73
$GPGGA,025809.540,1845.635,N,09901.209,E,1,12,1.0,0.0,M,0.0,M,,*6B
$GPGSA,A,3,01,02,03,04,05,06,07,08,09,10,11,12,1.0,1.0,1.0*30
$GPRMC,025809.540,A,1845.635,N,09901.209,E,038.9,156.7,030417,000.0,W*79
$GPGGA,025810.540,1845.625,N,09901.213,E,1,12,1.0,0.0,M,0.0,M,,*69
$GPGSA,A,3,01,02,03,04,05,06,07,08,09,10,11,12,1.0,1.0,1.0*30
$GPRMC,025810.540,A,1845.625,N,09901.213,E,038.9,156.7,030417,000.0,W*7B
$GPGGA,025811.540,1845.615,N,09901.218,E,1,12,1.0,0.0,M,0.0,M,,*60
$GPGSA,A,3,01,02,03,04,05,06,07,08,09,10,11,12,1.0,1.0,1.0*30
$GPRMC,025811.540,A,1845.615,N,09901.218,E,038.9,156.7,030417,000.0,W*72
$GPGGA,025812.540,1845.605,N,09901.222,E,1,12,1.0,0.0,M,0.0,M,,*6B
$GPGSA,A,3,01,02,03,04,05,06,07,08,09,10,11,12,1.0,1.0,1.0*30
$GPRMC,025812.540,A,1845.605,N,09901.222,E,038.9,156.7,030417,000.0,W*79
$GPGGA,025813.540,1845.595,N,09901.226,E,1,12,1.0,0.0,M,0.0,M,,*64
$GPGSA,A,3,01,02,03,04,05,06,07,08,09,10,11,12,1.0,1.0,1.0*30
$GPRMC,025813.540,A,1845.595,N,09901.226,E,038.9,156.7,030417,000.0,W*76
$GPGGA,025814.540,1845.585,N,09901.230,E,1,12,1.0,0.0,M,0.0,M,,*65
$GPGSA,A,3,01,02,03,04,05,06,07,08,09,10,11,12,1.0,1.0,1.0*30
$GPRMC,025814.540,A,1845.585,N,09901.230,E,038.9,156.7,030417,000.0,W*77
$GPGGA,025815.540,1845.575,N,09901.235,E,1,12,1.0,0.0,M,0.0,M,,*6E
$GPGSA,A,3,01,02,03,04,05,06,07,08,09,10,11,12,1.0,1.0,1.0*30
$GPRMC,025815.540,A,1845.575,N,09901.235,E,038.9,156.7,030417,000.0,W*7C
$GPGGA,025816.540,1845.565,N,09901.239,E,1,12,1.0,0.0,M,0.0,M,,*60
$GPGSA,A,3,01,02,03,04,05,06,07,08,09,10,11,12,1.0,1.0,1.0*30
$GPRMC,025816.540,A,1845.565,N,09901.239,E,038.9,156.7,030417,000.0,W*72
$GPGGA,025817.540,1845.555,N,09901.243,E,1,12,1.0,0.0,M,0.0,M,,*6F
$GPGSA,A,3,01,02,03,04,05,06,07,08,09,10,11,12,1.0,1.0,1.0*30
$GPRMC,025817.540,A,1845.555,N,09901.243,E,038.9,156.7,030417,000.0,W*7D
$GPGGA,025818.540,1845.545,N,09901.248,E,1,12,1.0,0.0,M,0.0,M,,*6A
$GPGSA,A,3,01,02,03,04,05,06,07,08,09,10,11,12,1.0,1.0,1.0*30
$GPRMC,025818.540,A,1845.545,N,09901.248,E,038.9,156.7,030417,000.0,W*78
$GPGGA,025819.540,1845.535,N,09901.252,E,1,12,1.0,0.0,M,0.0,M,,*67
$GPGSA,A,3,01,02,03,04,05,06,07,08,09,10,11,12,1.0,1.0,1.0*30
$GPRMC,025819.540,A,1845.535,N,09901.252,E,038.9,156.7,030417,000.0,W*75
$GPGGA,025820.540,1845.525,N,09901.256,E,1,12,1.0,0.0,M,0.0,M,,*68
$GPGSA,A,3,01,02,03,04,05,06,07,08,09,10,11,12,1.0,1.0,1.0*30
$GPRMC,025820.540,A,1845.525,N,09901.256,E,038.9,156.7,030417,000.0,W*7A
$GPGGA,025821.540,1845.515,N,09901.261,E,1,12,1.0,0.0,M,0.0,M,,*6E
$GPGSA,A,3,01,02,03,04,05,06,07,08,09,10,11,12,1.0,1.0,1.0*30
$GPRMC,025821.540,A,1845.515,N,09901.261,E,038.9,156.7,030417,000.0,W*7C
$GPGGA,025822.540,1845.505,N,09901.265,E,1,12,1.0,0.0,M,0.0,M,,*68
$GPGSA,A,3,01,02,03,04,05,06,07,08,09,10,11,12,1.0,1.0,1.0*30
$GPRMC,025822.540,A,1845.505,N,09901.265,E,038.9,156.7,030417,000.0,W*7A
$GPGGA,025823.540,1845.495,N,09901.269,E,1,12,1.0,0.0,M,0.0,M,,*6D
$GPGSA,A,3,01,02,03,04,05,06,07,08,09,10,11,12,1.0,1.0,1.0*30
$GPRMC,025823.540,A,1845.495,N,09901.269,E,038.9,156.7,030417,000.0,W*7F
$GPGGA,025824.540,1845.485,N,09901.274,E,1,12,1.0,0.0,M,0.0,M,,*67
$GPGSA,A,3,01,02,03,04,05,06,07,08,09,10,11,12,1.0,1.0,1.0*30
$GPRMC,025824.540,A,1845.485,N,09901.274,E,038.9,156.7,030417,000.0,W*75
$GPGGA,025825.540,1845.475,N,09901.278,E,1,12,1.0,0.0,M,0.0,M,,*65
$GPGSA,A,3,01,02,03,04,05,06,07,08,09,10,11,12,1.0,1.0,1.0*30
$GPRMC,025825.540,A,1845.475,N,09901.278,E,038.9,156.7,030417,000.0,W*77
$GPGGA,025826.540,1845.465,N,09901.282,E,1,12,1.0,0.0,M,0.0,M,,*62
$GPGSA,A,3,01,02,03,04,05,06,07,08,09,10,11,12,1.0,1.0,1.0*30
$GPRMC,025826.540,A,1845.465,N,09901.282,E,038.9,156.7,030417,000.0,W*70
$GPGGA,025827.540,1845.455,N,09901.286,E,1,12,1.0,0.0,M,0.0,M,,*64
$GPGSA,A,3,01,02,03,04,05,06,07,08,09,10,11,12,1.0,1.0,1.0*30
$GPRMC,025827.540,A,1845.455,N,09901.286,E,038.9,156.7,030417,000.0,W*76
$GPGGA,025828.540,1845.445,N,09901.291,E,1,12,1.0,0.0,M,0.0,M,,*6C
$GPGSA,A,3,01,02,03,04,05,06,07,08,09,10,11,12,1.0,1.0,1.0*30
$GPRMC,025828.540,A,1845.445,N,09901.291,E,038.9,156.7,030417,000.0,W*7E
$GPGGA,025829.540,1845.435,N,09901.295,E,1,12,1.0,0.0,M,0.0,M,,*6E
$GPGSA,A,3,01,02,03,04,05,06,07,08,09,10,11,12,1.0,1.0,1.0*30
$GPRMC,025829.540,A,1845.435,N,09901.295,E,038.9,156.7,030417,000.0,W*7C
$GPGGA,025830.540,1845.425,N,09901.299,E,1,12,1.0,0.0,M,0.0,M,,*6B
$GPGSA,A,3,01,02,03,04,05,06,07,08,09,10,11,12,1.0,1.0,1.0*30
$GPRMC,025830.540,A,1845.425,N,09901.299,E,038.9,156.7,030417,000.0,W*79
$GPGGA,025831.540,1845.415,N,09901.304,E,1,12,1.0,0.0,M,0.0,M,,*6C
$GPGSA,A,3,01,02,03,04,05,06,07,08,09,10,11,12,1.0,1.0,1.0*30
$GPRMC,025831.540,A,1845.415,N,09901.304,E,038.9,156.7,030417,000.0,W*7E
$GPGGA,025832.540,1845.405,N,09901.308,E,1,12,1.0,0.0,M,0.0,M,,*62
$GPGSA,A,3,01,02,03,04,05,06,07,08,09,10,11,12,1.0,1.0,1.0*30
$GPRMC,025832.540,A,1845.405,N,09901.308,E,038.9,156.7,030417,000.0,W*70
$GPGGA,025833.540,1845.395,N,09901.312,E,1,12,1.0,0.0,M,0.0,M,,*66
$GPGSA,A,3,01,02,03,04,05,06,07,08,09,10,11,12,1.0,1.0,1.0*30
$GPRMC,025833.540,A,1845.395,N,09901.312,E,038.9,156.7,030417,000.0,W*74
$GPGGA,025834.540,1845.385,N,09901.317,E,1,12,1.0,0.0,M,0.0,M,,*65
$GPGSA,A,3,01,02,03,04,05,06,07,08,09,10,11,12,1.0,1.0,1.0*30
$GPRMC,025834.540,A,1845.385,N,09901.317,E,038.9,156.7,030417,000.0,W*77
$GPGGA,025835.540,1845.375,N,09901.321,E,1,12,1.0,0.0,M,0.0,M,,*6E
$GPGSA,A,3,01,02,03,04,05,06,07,08,09,10,11,12,1.0,1.0,1.0*30
$GPRMC,025835.540,A,1845.375,N,09901.321,E,038.9,156.7,030417,000.0,W*7C
$GPGGA,025836.540,1845.365,N,09901.325,E,1,12,1.0,0.0,M,0.0,M,,*68
$GPGSA,A,3,01,02,03,04,05,06,07,08,09,10,11,12,1.0,1.0,1.0*30
$GPRMC,025836.540,A,1845.365,N,09901.325,E,038.9,156.7,030417,000.0,W*7A
$GPGGA,025837.540,1845.355,N,09901.329,E,1,12,1.0,0.0,M,0.0,M,,*66
$GPGSA,A,3,01,02,03,04,05,06,07,08,09,10,11,12,1.0,1.0,1.0*30
$GPRMC,025837.540,A,1845.355,N,09901.329,E,038.9,156.7,030417,000.0,W*74
$GPGGA,025838.540,1845.345,N,09901.334,E,1,12,1.0,0.0,M,0.0,M,,*64
$GPGSA,A,3,01,02,03,04,05,06,07,08,09,10,11,12,1.0,1.0,1.0*30
$GPRMC,025838.540,A,1845.345,N,09901.334,E,038.9,156.7,030417,000.0,W*76
$GPGGA,025839.540,1845.335,N,09901.338,E,1,12,1.0,0.0,M,0.0,M,,*6E
$GPGSA,A,3,01,02,03,04,05,06,07,08,09,10,11,12,1.0,1.0,1.0*30
$GPRMC,025839.540,A,1845.335,N,09901.338,E,038.9,156.7,030417,000.0,W*7C
$GPGGA,025840.540,1845.325,N,09901.342,E,1,12,1.0,0.0,M,0.0,M,,*6C
$GPGSA,A,3,01,02,03,04,05,06,07,08,09,10,11,12,1.0,1.0,1.0*30
$GPRMC,025840.540,A,1845.325,N,09901.342,E,038.9,156.7,030417,000.0,W*7E
$GPGGA,025841.540,1845.315,N,09901.347,E,1,12,1.0,0.0,M,0.0,M,,*6B
$GPGSA,A,3,01,02,03,04,05,06,07,08,09,10,11,12,1.0,1.0,1.0*30
$GPRMC,025841.540,A,1845.315,N,09901.347,E,038.9,156.7,030417,000.0,W*79
$GPGGA,025842.540,1845.305,N,09901.351,E,1,12,1.0,0.0,M,0.0,M,,*6E
$GPGSA,A,3,01,02,03,04,05,06,07,08,09,10,11,12,1.0,1.0,1.0*30
$GPRMC,025842.540,A,1845.305,N,09901.351,E,038.9,156.7,030417,000.0,W*7C
$GPGGA,025843.540,1845.295,N,09901.355,E,1,12,1.0,0.0,M,0.0,M,,*63
$GPGSA,A,3,01,02,03,04,05,06,07,08,09,10,11,12,1.0,1.0,1.0*30
$GPRMC,025843.540,A,1845.295,N,09901.355,E,038.9,156.7,030417,000.0,W*71
$GPGGA,025844.540,1845.285,N,09901.360,E,1,12,1.0,0.0,M,0.0,M,,*63
$GPGSA,A,3,01,02,03,04,05,06,07,08,09,10,11,12,1.0,1.0,1.0*30
$GPRMC,025844.540,A,1845.285,N,09901.360,E,038.9,156.7,030417,000.0,W*71
$GPGGA,025845.540,1845.275,N,09901.364,E,1,12,1.0,0.0,M,0.0,M,,*69
$GPGSA,A,3,01,02,03,04,05,06,07,08,09,10,11,12,1.0,1.0,1.0*30
$GPRMC,025845.540,A,1845.275,N,09901.364,E,038.9,156.7,030417,000.0,W*7B
$GPGGA,025846.540,1845.265,N,09901.368,E,1,12,1.0,0.0,M,0.0,M,,*67
$GPGSA,A,3,01,02,03,04,05,06,07,08,09,10,11,12,1.0,1.0,1.0*30
$GPRMC,025846.540,A,1845.265,N,09901.368,E,038.9,156.7,030417,000.0,W*75
$GPGGA,025847.540,1845.255,N,09901.373,E,1,12,1.0,0.0,M,0.0,M,,*6F
$GPGSA,A,3,01,02,03,04,05,06,07,08,09,10,11,12,1.0,1.0,1.0*30
$GPRMC,025847.540,A,1845.255,N,09901.373,E,038.9,156.7,030417,000.0,W*7D
$GPGGA,025848.540,1845.245,N,09901.377,E,1,12,1.0,0.0,M,0.0,M,,*65
$GPGSA,A,3,01,02,03,04,05,06,07,08,09,10,11,12,1.0,1.0,1.0*30
$GPRMC,025848.540,A,1845.245,N,09901.377,E,038.9,156.7,030417,000.0,W*77
$GPGGA,025849.540,1845.235,N,09901.381,E,1,12,1.0,0.0,M,0.0,M,,*6A
$GPGSA,A,3,01,02,03,04,05,06,07,08,09,10,11,12,1.0,1.0,1.0*30
$GPRMC,025849.540,A,1845.235,N,09901.381,E,038.9,156.7,030417,000.0,W*78
$GPGGA,025850.540,1845.225,N,09901.385,E,1,12,1.0,0.0,M,0.0,M,,*67
$GPGSA,A,3,01,02,03,04,05,06,07,08,09,10,11,12,1.0,1.0,1.0*30
$GPRMC,025850.540,A,1845.225,N,09901.385,E,038.9,156.7,030417,000.0,W*75
$GPGGA,025851.540,1845.215,N,09901.390,E,1,12,1.0,0.0,M,0.0,M,,*61
$GPGSA,A,3,01,02,03,04,05,06,07,08,09,10,11,12,1.0,1.0,1.0*30
$GPRMC,025851.540,A,1845.215,N,09901.390,E,038.9,156.7,030417,000.0,W*73
$GPGGA,025852.540,1845.205,N,09901.394,E,1,12,1.0,0.0,M,0.0,M,,*67
$GPGSA,A,3,01,02,03,04,05,06,07,08,09,10,11,12,1.0,1.0,1.0*30
$GPRMC,025852.540,A,1845.205,N,09901.394,E,038.9,156.7,030417,000.0,W*75
$GPGGA,025853.540,1845.195,N,09901.398,E,1,12,1.0,0.0,M,0.0,M,,*60
$GPGSA,A,3,01,02,03,04,05,06,07,08,09,10,11,12,1.0,1.0,1.0*30
$GPRMC,025853.540,A,1845.195,N,09901.398,E,038.9,156.7,030417,000.0,W*72
$GPGGA,025854.540,1845.185,N,09901.403,E,1,12,1.0,0.0,M,0.0,M,,*63
$GPGSA,A,3,01,02,03,04,05,06,07,08,09,10,11,12,1.0,1.0,1.0*30
$GPRMC,025854.540,A,1845.185,N,09901.403,E,038.9,156.7,030417,000.0,W*71
$GPGGA,025855.540,1845.175,N,09901.407,E,1,12,1.0,0.0,M,0.0,M,,*69
$GPGSA,A,3,01,02,03,04,05,06,07,08,09,10,11,12,1.0,1.0,1.0*30
$GPRMC,025855.540,A,1845.175,N,09901.407,E,038.9,156.7,030417,000.0,W*7B
$GPGGA,025856.540,1845.165,N,09901.411,E,1,12,1.0,0.0,M,0.0,M,,*6C
$GPGSA,A,3,01,02,03,04,05,06,07,08,09,10,11,12,1.0,1.0,1.0*30
$GPRMC,025856.540,A,1845.165,N,09901.411,E,038.9,156.7,030417,000.0,W*7E
$GPGGA,025857.540,1845.155,N,09901.416,E,1,12,1.0,0.0,M,0.0,M,,*69
$GPGSA,A,3,01,02,03,04,05,06,07,08,09,10,11,12,1.0,1.0,1.0*30
$GPRMC,025857.540,A,1845.155,N,09901.416,E,038.9,156.7,030417,000.0,W*7B
$GPGGA,025858.540,1845.145,N,09901.420,E,1,12,1.0,0.0,M,0.0,M,,*62
$GPGSA,A,3,01,02,03,04,05,06,07,08,09,10,11,12,1.0,1.0,1.0*30
$GPRMC,025858.540,A,1845.145,N,09901.420,E,038.9,156.7,030417,000.0,W*70
$GPGGA,025859.540,1845.135,N,09901.424,E,1,12,1.0,0.0,M,0.0,M,,*60
$GPGSA,A,3,01,02,03,04,05,06,07,08,09,10,11,12,1.0,1.0,1.0*30
$GPRMC,025859.540,A,1845.135,N,09901.424,E,038.9,156.7,030417,000.0,W*72
$GPGGA,025900.540,1845.125,N,09901.429,E,1,12,1.0,0.0,M,0.0,M,,*61
$GPGSA,A,3,01,02,03,04,05,06,07,08,09,10,11,12,1.0,1.0,1.0*30
$GPRMC,025900.540,A,1845.125,N,09901.429,E,038.9,156.7,030417,000.0,W*73
$GPGGA,025901.540,1845.115,N,09901.433,E,1,12,1.0,0.0,M,0.0,M,,*68
$GPGSA,A,3,01,02,03,04,05,06,07,08,09,10,11,12,1.0,1.0,1.0*30
$GPRMC,025901.540,A,1845.115,N,09901.433,E,038.9,156.7,030417,000.0,W*7A
$GPGGA,025902.540,1845.105,N,09901.437,E,1,12,1.0,0.0,M,0.0,M,,*6E
$GPGSA,A,3,01,02,03,04,05,06,07,08,09,10,11,12,1.0,1.0,1.0*30
$GPRMC,025902.540,A,1845.105,N,09901.437,E,038.9,156.7,030417,000.0,W*7C
$GPGGA,025903.540,1845.095,N,09901.441,E,1,12,1.0,0.0,M,0.0,M,,*66
$GPGSA,A,3,01,02,03,04,05,06,07,08,09,10,11,12,1.0,1.0,1.0*30
$GPRMC,025903.540,A,1845.095,N,09901.441,E,038.9,156.7,030417,000.0,W*74
$GPGGA,025904.540,1845.085,N,09901.446,E,1,12,1.0,0.0,M,0.0,M,,*67
$GPGSA,A,3,01,02,03,04,05,06,07,08,09,10,11,12,1.0,1.0,1.0*30
$GPRMC,025904.540,A,1845.085,N,09901.446,E,038.9,156.7,030417,000.0,W*75
$GPGGA,025905.540,1845.075,N,09901.450,E,1,12,1.0,0.0,M,0.0,M,,*6E
$GPGSA,A,3,01,02,03,04,05,06,07,08,09,10,11,12,1.0,1.0,1.0*30
$GPRMC,025905.540,A,1845.075,N,09901.450,E,038.9,156.7,030417,000.0,W*7C
$GPGGA,025906.540,1845.065,N,09901.454,E,1,12,1.0,0.0,M,0.0,M,,*68
$GPGSA,A,3,01,02,03,04,05,06,07,08,09,10,11,12,1.0,1.0,1.0*30
$GPRMC,025906.540,A,1845.065,N,09901.454,E,038.9,156.7,030417,000.0,W*7A
$GPGGA,025907.540,1845.055,N,09901.459,E,1,12,1.0,0.0,M,0.0,M,,*67
$GPGSA,A,3,01,02,03,04,05,06,07,08,09,10,11,12,1.0,1.0,1.0*30
$GPRMC,025907.540,A,1845.055,N,09901.459,E,038.9,156.7,030417,000.0,W*75
$GPGGA,025908.540,1845.045,N,09901.463,E,1,12,1.0,0.0,M,0.0,M,,*60
$GPGSA,A,3,01,02,03,04,05,06,07,08,09,10,11,12,1.0,1.0,1.0*30
$GPRMC,025908.540,A,1845.045,N,09901.463,E,038.9,156.7,030417,000.0,W*72
$GPGGA,025909.540,1845.035,N,09901.467,E,1,12,1.0,0.0,M,0.0,M,,*62
$GPGSA,A,3,01,02,03,04,05,06,07,08,09,10,11,12,1.0,1.0,1.0*30
$GPRMC,025909.540,A,1845.035,N,09901.467,E,038.9,156.7,030417,000.0,W*70
$GPGGA,025910.540,1845.025,N,09901.472,E,1,12,1.0,0.0,M,0.0,M,,*6F
$GPGSA,A,3,01,02,03,04,05,06,07,08,09,10,11,12,1.0,1.0,1.0*30
$GPRMC,025910.540,A,1845.025,N,09901.472,E,038.9,156.7,030417,000.0,W*7D
$GPGGA,025911.540,1845.015,N,09901.476,E,1,12,1.0,0.0,M,0.0,M,,*69
$GPGSA,A,3,01,02,03,04,05,06,07,08,09,10,11,12,1.0,1.0,1.0*30
$GPRMC,025911.540,A,1845.015,N,09901.476,E,038.9,156.7,030417,000.0,W*7B
$GPGGA,025912.540,1845.005,N,09901.480,E,1,12,1.0,0.0,M,0.0,M,,*62
$GPGSA,A,3,01,02,03,04,05,06,07,08,09,10,11,12,1.0,1.0,1.0*30
$GPRMC,025912.540,A,1845.005,N,09901.480,E,038.9,156.7,030417,000.0,W*70
$GPGGA,025913.540,1844.995,N,09901.485,E,1,12,1.0,0.0,M,0.0,M,,*67
$GPGSA,A,3,01,02,03,04,05,06,07,08,09,10,11,12,1.0,1.0,1.0*30
$GPRMC,025913.540,A,1844.995,N,09901.485,E,038.9,156.7,030417,000.0,W*75
$GPGGA,025914.540,1844.985,N,09901.489,E,1,12,1.0,0.0,M,0.0,M,,*6D
$GPGSA,A,3,01,02,03,04,05,06,07,08,09,10,11,12,1.0,1.0,1.0*30
$GPRMC,025914.540,A,1844.985,N,09901.489,E,038.9,156.7,030417,000.0,W*7F
$GPGGA,025915.540,1844.975,N,09901.493,E,1,12,1.0,0.0,M,0.0,M,,*68
$GPGSA,A,3,01,02,03,04,05,06,07,08,09,10,11,12,1.0,1.0,1.0*30
$GPRMC,025915.540,A,1844.975,N,09901.493,E,038.9,156.7,030417,000.0,W*7A
$GPGGA,025916.540,1844.965,N,09901.497,E,1,12,1.0,0.0,M,0.0,M,,*6E
$GPGSA,A,3,01,02,03,04,05,06,07,08,09,10,11,12,1.0,1.0,1.0*30
$GPRMC,025916.540,A,1844.965,N,09901.497,E,038.9,156.7,030417,000.0,W*7C
$GPGGA,025917.540,1844.955,N,09901.502,E,1,12,1.0,0.0,M,0.0,M,,*61
$GPGSA,A,3,01,02,03,04,05,06,07,08,09,10,11,12,1.0,1.0,1.0*30
$GPRMC,025917.540,A,1844.955,N,09901.502,E,038.9,156.7,030417,000.0,W*73
$GPGGA,025918.540,1844.945,N,09901.506,E,1,12,1.0,0.0,M,0.0,M,,*6B
$GPGSA,A,3,01,02,03,04,05,06,07,08,09,10,11,12,1.0,1.0,1.0*30
$GPRMC,025918.540,A,1844.945,N,09901.506,E,038.9,156.7,030417,000.0,W*79
$GPGGA,025919.540,1844.935,N,09901.510,E,1,12,1.0,0.0,M,0.0,M,,*6A
$GPGSA,A,3,01,02,03,04,05,06,07,08,09,10,11,12,1.0,1.0,1.0*30
$GPRMC,025919.540,A,1844.935,N,09901.510,E,038.9,156.7,030417,000.0,W*78
$GPGGA,025920.540,1844.925,N,09901.515,E,1,12,1.0,0.0,M,0.0,M,,*64
$GPGSA,A,3,01,02,03,04,05,06,07,08,09,10,11,12,1.0,1.0,1.0*30
$GPRMC,025920.540,A,1844.925,N,09901.515,E,038.9,157.0,030417,000.0,W*70
$GPGGA,025921.540,1844.915,N,09901.519,E,1,12,1.0,0.0,M,0.0,M,,*6A
$GPGSA,A,3,01,02,03,04,05,06,07,08,09,10,11,12,1.0,1.0,1.0*30
$GPRMC,025921.540,A,1844.915,N,09901.519,E,038.9,157.0,030417,000.0,W*7E
$GPGGA,025922.540,1844.905,N,09901.523,E,1,12,1.0,0.0,M,0.0,M,,*61
$GPGSA,A,3,01,02,03,04,05,06,07,08,09,10,11,12,1.0,1.0,1.0*30
$GPRMC,025922.540,A,1844.905,N,09901.523,E,038.9,157.0,030417,000.0,W*75
$GPGGA,025923.540,1844.895,N,09901.527,E,1,12,1.0,0.0,M,0.0,M,,*6C
$GPGSA,A,3,01,02,03,04,05,06,07,08,09,10,11,12,1.0,1.0,1.0*30
$GPRMC,025923.540,A,1844.895,N,09901.527,E,038.9,157.0,030417,000.0,W*78
$GPGGA,025924.540,1844.885,N,09901.532,E,1,12,1.0,0.0,M,0.0,M,,*6E
$GPGSA,A,3,01,02,03,04,05,06,07,08,09,10,11,12,1.0,1.0,1.0*30
$GPRMC,025924.540,A,1844.885,N,09901.532,E,038.9,157.0,030417,000.0,W*7A
$GPGGA,025925.540,1844.875,N,09901.536,E,1,12,1.0,0.0,M,0.0,M,,*64
$GPGSA,A,3,01,02,03,04,05,06,07,08,09,10,11,12,1.0,1.0,1.0*30
$GPRMC,025925.540,A,1844.875,N,09901.536,E,038.9,157.0,030417,000.0,W*70
$GPGGA,025926.540,1844.865,N,09901.540,E,1,12,1.0,0.0,M,0.0,M,,*67
$GPGSA,A,3,01,02,03,04,05,06,07,08,09,10,11,12,1.0,1.0,1.0*30
$GPRMC,025926.540,A,1844.865,N,09901.540,E,038.9,157.0,030417,000.0,W*73
$GPGGA,025927.540,1844.855,N,09901.544,E,1,12,1.0,0.0,M,0.0,M,,*61
$GPGSA,A,3,01,02,03,04,05,06,07,08,09,10,11,12,1.0,1.0,1.0*30
$GPRMC,025927.540,A,1844.855,N,09901.544,E,038.9,157.0,030417,000.0,W*75
$GPGGA,025928.540,1844.845,N,09901.549,E,1,12,1.0,0.0,M,0.0,M,,*62
$GPGSA,A,3,01,02,03,04,05,06,07,08,09,10,11,12,1.0,1.0,1.0*30
$GPRMC,025928.540,A,1844.845,N,09901.549,E,038.9,157.0,030417,000.0,W*76
$GPGGA,025929.540,1844.835,N,09901.553,E,1,12,1.0,0.0,M,0.0,M,,*6F
$GPGSA,A,3,01,02,03,04,05,06,07,08,09,10,11,12,1.0,1.0,1.0*30
$GPRMC,025929.540,A,1844.835,N,09901.553,E,038.9,157.0,030417,000.0,W*7B
$GPGGA,025930.540,1844.825,N,09901.557,E,1,12,1.0,0.0,M,0.0,M,,*62
$GPGSA,A,3,01,02,03,04,05,06,07,08,09,10,11,12,1.0,1.0,1.0*30
$GPRMC,025930.540,A,1844.825,N,09901.557,E,038.9,157.0,030417,000.0,W*76
$GPGGA,025931.540,1844.815,N,09901.561,E,1,12,1.0,0.0,M,0.0,M,,*65
$GPGSA,A,3,01,02,03,04,05,06,07,08,09,10,11,12,1.0,1.0,1.0*30
$GPRMC,025931.540,A,1844.815,N,09901.561,E,038.9,157.0,030417,000.0,W*71
$GPGGA,025932.540,1844.805,N,09901.566,E,1,12,1.0,0.0,M,0.0,M,,*60
$GPGSA,A,3,01,02,03,04,05,06,07,08,09,10,11,12,1.0,1.0,1.0*30
$GPRMC,025932.540,A,1844.805,N,09901.566,E,038.9,157.0,030417,000.0,W*74
$GPGGA,025933.540,1844.795,N,09901.570,E,1,12,1.0,0.0,M,0.0,M,,*60
$GPGSA,A,3,01,02,03,04,05,06,07,08,09,10,11,12,1.0,1.0,1.0*30
$GPRMC,025933.540,A,1844.795,N,09901.570,E,038.9,157.0,030417,000.0,W*74
$GPGGA,025934.540,1844.785,N,09901.574,E,1,12,1.0,0.0,M,0.0,M,,*62
$GPGSA,A,3,01,02,03,04,05,06,07,08,09,10,11,12,1.0,1.0,1.0*30
$GPRMC,025934.540,A,1844.785,N,09901.574,E,038.9,157.0,030417,000.0,W*76
$GPGGA,025935.540,1844.775,N,09901.578,E,1,12,1.0,0.0,M,0.0,M,,*60
$GPGSA,A,3,01,02,03,04,05,06,07,08,09,10,11,12,1.0,1.0,1.0*30
$GPRMC,025935.540,A,1844.775,N,09901.578,E,038.9,157.0,030417,000.0,W*74
$GPGGA,025936.540,1844.765,N,09901.583,E,1,12,1.0,0.0,M,0.0,M,,*66
$GPGSA,A,3,01,02,03,04,05,06,07,08,09,10,11,12,1.0,1.0,1.0*30
$GPRMC,025936.540,A,1844.765,N,09901.583,E,038.9,157.0,030417,000.0,W*72
$GPGGA,025937.540,1844.755,N,09901.587,E,1,12,1.0,0.0,M,0.0,M,,*60
$GPGSA,A,3,01,02,03,04,05,06,07,08,09,10,11,12,1.0,1.0,1.0*30
$GPRMC,025937.540,A,1844.755,N,09901.587,E,038.9,157.0,030417,000.0,W*74
$GPGGA,025938.540,1844.745,N,09901.591,E,1,12,1.0,0.0,M,0.0,M,,*69
$GPGSA,A,3,01,02,03,04,05,06,07,08,09,10,11,12,1.0,1.0,1.0*30
$GPRMC,025938.540,A,1844.745,N,09901.591,E,038.9,157.0,030417,000.0,W*7D
$GPGGA,025939.540,1844.735,N,09901.596,E,1,12,1.0,0.0,M,0.0,M,,*68
$GPGSA,A,3,01,02,03,04,05,06,07,08,09,10,11,12,1.0,1.0,1.0*30
$GPRMC,025939.540,A,1844.735,N,09901.596,E,038.9,157.0,030417,000.0,W*7C
$GPGGA,025940.540,1844.725,N,09901.600,E,1,12,1.0,0.0,M,0.0,M,,*6B
$GPGSA,A,3,01,02,03,04,05,06,07,08,09,10,11,12,1.0,1.0,1.0*30
$GPRMC,025940.540,A,1844.725,N,09901.600,E,038.9,157.0,030417,000.0,W*7F
$GPGGA,025941.540,1844.715,N,09901.604,E,1,12,1.0,0.0,M,0.0,M,,*6D
$GPGSA,A,3,01,02,03,04,05,06,07,08,09,10,11,12,1.0,1.0,1.0*30
$GPRMC,025941.540,A,1844.715,N,09901.604,E,038.9,157.0,030417,000.0,W*79
$GPGGA,025942.540,1844.705,N,09901.608,E,1,12,1.0,0.0,M,0.0,M,,*63
$GPGSA,A,3,01,02,03,04,05,06,07,08,09,10,11,12,1.0,1.0,1.0*30
$GPRMC,025942.540,A,1844.705,N,09901.608,E,038.9,157.0,030417,000.0,W*77
$GPGGA,025943.540,1844.695,N,09901.613,E,1,12,1.0,0.0,M,0.0,M,,*60
$GPGSA,A,3,01,02,03,04,05,06,07,08,09,10,11,12,1.0,1.0,1.0*30
$GPRMC,025943.540,A,1844.695,N,09901.613,E,038.9,157.0,030417,000.0,W*74
$GPGGA,025944.540,1844.685,N,09901.617,E,1,12,1.0,0.0,M,0.0,M,,*62
$GPGSA,A,3,01,02,03,04,05,06,07,08,09,10,11,12,1.0,1.0,1.0*30
$GPRMC,025944.540,A,1844.685,N,09901.617,E,038.9,157.0,030417,000.0,W*76
$GPGGA,025945.540,1844.675,N,09901.621,E,1,12,1.0,0.0,M,0.0,M,,*69
$GPGSA,A,3,01,02,03,04,05,06,07,08,09,10,11,12,1.0,1.0,1.0*30
$GPRMC,025945.540,A,1844.675,N,09901.621,E,038.9,157.0,030417,000.0,W*7D
$GPGGA,025946.540,1844.665,N,09901.625,E,1,12,1.0,0.0,M,0.0,M,,*6F
$GPGSA,A,3,01,02,03,04,05,06,07,08,09,10,11,12,1.0,1.0,1.0*30
$GPRMC,025946.540,A,1844.665,N,09901.625,E,038.9,157.0,030417,000.0,W*7B
$GPGGA,025947.540,1844.655,N,09901.630,E,1,12,1.0,0.0,M,0.0,M,,*69
$GPGSA,A,3,01,02,03,04,05,06,07,08,09,10,11,12,1.0,1.0,1.0*30
$GPRMC,025947.540,A,1844.655,N,09901.630,E,038.9,157.0,030417,000.0,W*7D
$GPGGA,025948.540,1844.645,N,09901.634,E,1,12,1.0,0.0,M,0.0,M,,*63
$GPGSA,A,3,01,02,03,04,05,06,07,08,09,10,11,12,1.0,1.0,1.0*30
$GPRMC,025948.540,A,1844.645,N,09901.634,E,038.9,157.0,030417,000.0,W*77
$GPGGA,025949.540,1844.635,N,09901.638,E,1,12,1.0,0.0,M,0.0,M,,*69
$GPGSA,A,3,01,02,03,04,05,06,07,08,09,10,11,12,1.0,1.0,1.0*30
$GPRMC,025949.540,A,1844.635,N,09901.638,E,038.9,157.0,030417,000.0,W*7D
$GPGGA,025950.540,1844.625,N,09901.642,E,1,12,1.0,0.0,M,0.0,M,,*6D
$GPGSA,A,3,01,02,03,04,05,06,07,08,09,10,11,12,1.0,1.0,1.0*30
$GPRMC,025950.540,A,1844.625,N,09901.642,E,038.9,157.0,030417,000.0,W*79
$GPGGA,025951.540,1844.615,N,09901.647,E,1,12,1.0,0.0,M,0.0,M,,*6A
$GPGSA,A,3,01,02,03,04,05,06,07,08,09,10,11,12,1.0,1.0,1.0*30
$GPRMC,025951.540,A,1844.615,N,09901.647,E,038.9,157.0,030417,000.0,W*7E
$GPGGA,025952.540,1844.605,N,09901.651,E,1,12,1.0,0.0,M,0.0,M,,*6F
$GPGSA,A,3,01,02,03,04,05,06,07,08,09,10,11,12,1.0,1.0,1.0*30
$GPRMC,025952.540,A,1844.605,N,09901.651,E,038.9,157.0,030417,000.0,W*7B
$GPGGA,025953.540,1844.595,N,09901.655,E,1,12,1.0,0.0,M,0.0,M,,*60
$GPGSA,A,3,01,02,03,04,05,06,07,08,09,10,11,12,1.0,1.0,1.0*30
$GPRMC,025953.540,A,1844.595,N,09901.655,E,038.9,157.0,030417,000.0,W*74
$GPGGA,025954.540,1844.585,N,09901.659,E,1,12,1.0,0.0,M,0.0,M,,*6A
$GPGSA,A,3,01,02,03,04,05,06,07,08,09,10,11,12,1.0,1.0,1.0*30
$GPRMC,025954.540,A,1844.585,N,09901.659,E,038.9,157.0,030417,000.0,W*7E
$GPGGA,025955.540,1844.575,N,09901.664,E,1,12,1.0,0.0,M,0.0,M,,*6A
$GPGSA,A,3,01,02,03,04,05,06,07,08,09,10,11,12,1.0,1.0,1.0*30
$GPRMC,025955.540,A,1844.575,N,09901.664,E,038.9,157.0,030417,000.0,W*7E
$GPGGA,025956.540,1844.565,N,09901.668,E,1,12,1.0,0.0,M,0.0,M,,*64
$GPGSA,A,3,01,02,03,04,05,06,07,08,09,10,11,12,1.0,1.0,1.0*30
$GPRMC,025956.540,A,1844.565,N,09901.668,E,038.9,157.0,030417,000.0,W*70
$GPGGA,025957.540,1844.555,N,09901.672,E,1,12,1.0,0.0,M,0.0,M,,*6D
$GPGSA,A,3,01,02,03,04,05,06,07,08,09,10,11,12,1.0,1.0,1.0*30
$GPRMC,025957.540,A,1844.555,N,09901.672,E,038.9,157.0,030417,000.0,W*79
$GPGGA,025958.540,1844.545,N,09901.676,E,1,12,1.0,0.0,M,0.0,M,,*67
$GPGSA,A,3,01,02,03,04,05,06,07,08,09,10,11,12,1.0,1.0,1.0*30
$GPRMC,025958.540,A,1844.545,N,09901.676,E,038.9,157.0,030417,000.0,W*73
$GPGGA,025959.540,1844.535,N,09901.681,E,1,12,1.0,0.0,M,0.0,M,,*69
$GPGSA,A,3,01,02,03,04,05,06,07,08,09,10,11,12,1.0,1.0,1.0*30
$GPRMC,025959.540,A,1844.535,N,09901.681,E,038.9,157.0,030417,000.0,W*7D
$GPGGA,030000.540,1844.525,N,09901.685,E,1,12,1.0,0.0,M,0.0,M,,*6D
$GPGSA,A,3,01,02,03,04,05,06,07,08,09,10,11,12,1.0,1.0,1.0*30
$GPRMC,030000.540,A,1844.525,N,09901.685,E,038.9,157.0,030417,000.0,W*79
$GPGGA,030001.540,1844.515,N,09901.689,E,1,12,1.0,0.0,M,0.0,M,,*63
$GPGSA,A,3,01,02,03,04,05,06,07,08,09,10,11,12,1.0,1.0,1.0*30
$GPRMC,030001.540,A,1844.515,N,09901.689,E,038.9,157.0,030417,000.0,W*77
$GPGGA,030002.540,1844.505,N,09901.693,E,1,12,1.0,0.0,M,0.0,M,,*6A
$GPGSA,A,3,01,02,03,04,05,06,07,08,09,10,11,12,1.0,1.0,1.0*30
$GPRMC,030002.540,A,1844.505,N,09901.693,E,038.9,157.0,030417,000.0,W*7E
$GPGGA,030003.540,1844.495,N,09901.698,E,1,12,1.0,0.0,M,0.0,M,,*68
$GPGSA,A,3,01,02,03,04,05,06,07,08,09,10,11,12,1.0,1.0,1.0*30
$GPRMC,030003.540,A,1844.495,N,09901.698,E,038.9,157.0,030417,000.0,W*7C
$GPGGA,030004.540,1844.485,N,09901.702,E,1,12,1.0,0.0,M,0.0,M,,*6C
$GPGSA,A,3,01,02,03,04,05,06,07,08,09,10,11,12,1.0,1.0,1.0*30
$GPRMC,030004.540,A,1844.485,N,09901.702,E,038.9,157.0,030417,000.0,W*78
$GPGGA,030005.540,1844.475,N,09901.706,E,1,12,1.0,0.0,M,0.0,M,,*66
$GPGSA,A,3,01,02,03,04,05,06,07,08,09,10,11,12,1.0,1.0,1.0*30
$GPRMC,030005.540,A,1844.475,N,09901.706,E,038.9,157.0,030417,000.0,W*72
$GPGGA,030006.540,1844.465,N,09901.710,E,1,12,1.0,0.0,M,0.0,M,,*63
$GPGSA,A,3,01,02,03,04,05,06,07,08,09,10,11,12,1.0,1.0,1.0*30
$GPRMC,030006.540,A,1844.465,N,09901.710,E,038.9,157.0,030417,000.0,W*77
$GPGGA,030007.540,1844.455,N,09901.715,E,1,12,1.0,0.0,M,0.0,M,,*64
$GPGSA,A,3,01,02,03,04,05,06,07,08,09,10,11,12,1.0,1.0,1.0*30
$GPRMC,030007.540,A,1844.455,N,09901.715,E,038.9,157.0,030417,000.0,W*70
$GPGGA,030008.540,1844.445,N,09901.719,E,1,12,1.0,0.0,M,0.0,M,,*66
$GPGSA,A,3,01,02,03,04,05,06,07,08,09,10,11,12,1.0,1.0,1.0*30
$GPRMC,030008.540,A,1844.445,N,09901.719,E,038.9,157.0,030417,000.0,W*72
$GPGGA,030009.540,1844.435,N,09901.723,E,1,12,1.0,0.0,M,0.0,M,,*69
$GPGSA,A,3,01,02,03,04,05,06,07,08,09,10,11,12,1.0,1.0,1.0*30
$GPRMC,030009.540,A,1844.435,N,09901.723,E,038.9,157.0,030417,000.0,W*7D
$GPGGA,030010.540,1844.425,N,09901.727,E,1,12,1.0,0.0,M,0.0,M,,*64
$GPGSA,A,3,01,02,03,04,05,06,07,08,09,10,11,12,1.0,1.0,1.0*30
$GPRMC,030010.540,A,1844.425,N,09901.727,E,038.9,157.0,030417,000.0,W*70
$GPGGA,030011.540,1844.415,N,09901.732,E,1,12,1.0,0.0,M,0.0,M,,*62
$GPGSA,A,3,01,02,03,04,05,06,07,08,09,10,11,12,1.0,1.0,1.0*30
$GPRMC,030011.540,A,1844.415,N,09901.732,E,038.9,157.0,030417,000.0,W*76
$GPGGA,030012.540,1844.405,N,09901.736,E,1,12,1.0,0.0,M,0.0,M,,*64
$GPGSA,A,3,01,02,03,04,05,06,07,08,09,10,11,12,1.0,1.0,1.0*30
$GPRMC,030012.540,A,1844.405,N,09901.736,E,038.9,157.0,030417,000.0,W*70
$GPGGA,030013.540,1844.395,N,09901.740,E,1,12,1.0,0.0,M,0.0,M,,*6A
$GPGSA,A,3,01,02,03,04,05,06,07,08,09,10,11,12,1.0,1.0,1.0*30
$GPRMC,030013.540,A,1844.395,N,09901.740,E,038.9,157.0,030417,000.0,W*7E
$GPGGA,030014.540,1844.385,N,09901.744,E,1,12,1.0,0.0,M,0.0,M,,*68
$GPGSA,A,3,01,02,03,04,05,06,07,08,09,10,11,12,1.0,1.0,1.0*30
$GPRMC,030014.540,A,1844.385,N,09901.744,E,038.9,157.0,030417,000.0,W*7C
$GPGGA,030015.540,1844.375,N,09901.749,E,1,12,1.0,0.0,M,0.0,M,,*6B
$GPGSA,A,3,01,02,03,04,05,06,07,08,09,10,11,12,1.0,1.0,1.0*30
$GPRMC,030015.540,A,1844.375,N,09901.749,E,038.9,157.0,030417,000.0,W*7F
$GPGGA,030016.540,1844.365,N,09901.753,E,1,12,1.0,0.0,M,0.0,M,,*62
$GPGSA,A,3,01,02,03,04,05,06,07,08,09,10,11,12,1.0,1.0,1.0*30
$GPRMC,030016.540,A,1844.365,N,09901.753,E,038.9,157.0,030417,000.0,W*76
$GPGGA,030017.540,1844.355,N,09901.757,E,1,12,1.0,0.0,M,0.0,M,,*64
$GPGSA,A,3,01,02,03,04,05,06,07,08,09,10,11,12,1.0,1.0,1.0*30
$GPRMC,030017.540,A,1844.355,N,09901.757,E,038.9,157.0,030417,000.0,W*70
$GPGGA,030018.540,1844.345,N,09901.761,E,1,12,1.0,0.0,M,0.0,M,,*6F
$GPGSA,A,3,01,02,03,04,05,06,07,08,09,10,11,12,1.0,1.0,1.0*30
$GPRMC,030018.540,A,1844.345,N,09901.761,E,038.9,157.0,030417,000.0,W*7B
$GPGGA,030019.540,1844.335,N,09901.766,E,1,12,1.0,0.0,M,0.0,M,,*6E
$GPGSA,A,3,01,02,03,04,05,06,07,08,09,10,11,12,1.0,1.0,1.0*30
$GPRMC,030019.540,A,1844.335,N,09901.766,E,038.9,157.0,030417,000.0,W*7A
$GPGGA,030020.540,1844.325,N,09901.770,E,1,12,1.0,0.0,M,0.0,M,,*62
$GPGSA,A,3,01,02,03,04,05,06,07,08,09,10,11,12,1.0,1.0,1.0*30
$GPRMC,030020.540,A,1844.325,N,09901.770,E,038.9,157.0,030417,000.0,W*76
$GPGGA,030021.540,1844.315,N,09901.774,E,1,12,1.0,0.0,M,0.0,M,,*64
$GPGSA,A,3,01,02,03,04,05,06,07,08,09,10,11,12,1.0,1.0,1.0*30
$GPRMC,030021.540,A,1844.315,N,09901.774,E,038.9,157.0,030417,000.0,W*70
$GPGGA,030022.540,1844.305,N,09901.778,E,1,12,1.0,0.0,M,0.0,M,,*6A
$GPGSA,A,3,01,02,03,04,05,06,07,08,09,10,11,12,1.0,1.0,1.0*30
$GPRMC,030022.540,A,1844.305,N,09901.778,E,038.9,157.0,030417,000.0,W*7E
$GPGGA,030023.540,1844.295,N,09901.783,E,1,12,1.0,0.0,M,0.0,M,,*67
$GPGSA,A,3,01,02,03,04,05,06,07,08,09,10,11,12,1.0,1.0,1.0*30
$GPRMC,030023.540,A,1844.295,N,09901.783,E,038.9,157.0,030417,000.0,W*73
$GPGGA,030024.540,1844.285,N,09901.787,E,1,12,1.0,0.0,M,0.0,M,,*65
$GPGSA,A,3,01,02,03,04,05,06,07,08,09,10,11,12,1.0,1.0,1.0*30
$GPRMC,030024.540,A,1844.285,N,09901.787,E,038.9,157.0,030417,000.0,W*71
$GPGGA,030025.540,1844.275,N,09901.791,E,1,12,1.0,0.0,M,0.0,M,,*6C
$GPGSA,A,3,01,02,03,04,05,06,07,08,09,10,11,12,1.0,1.0,1.0*30
$GPRMC,030025.540,A,1844.275,N,09901.791,E,038.9,157.0,030417,000.0,W*78
$GPGGA,030026.540,1844.265,N,09901.795,E,1,12,1.0,0.0,M,0.0,M,,*6A
$GPGSA,A,3,01,02,03,04,05,06,07,08,09,10,11,12,1.0,1.0,1.0*30
$GPRMC,030026.540,A,1844.265,N,09901.795,E,038.9,157.0,030417,000.0,W*7E
$GPGGA,030027.540,1844.255,N,09901.800,E,1,12,1.0,0.0,M,0.0,M,,*6B
$GPGSA,A,3,01,02,03,04,05,06,07,08,09,10,11,12,1.0,1.0,1.0*30
$GPRMC,030027.540,A,1844.255,N,09901.800,E,038.9,157.0,030417,000.0,W*7F
$GPGGA,030028.540,1844.245,N,09901.804,E,1,12,1.0,0.0,M,0.0,M,,*61
$GPGSA,A,3,01,02,03,04,05,06,07,08,09,10,11,12,1.0,1.0,1.0*30
$GPRMC,030028.540,A,1844.245,N,09901.804,E,038.9,157.0,030417,000.0,W*75
$GPGGA,030029.540,1844.235,N,09901.808,E,1,12,1.0,0.0,M,0.0,M,,*6B
$GPGSA,A,3,01,02,03,04,05,06,07,08,09,10,11,12,1.0,1.0,1.0*30
$GPRMC,030029.540,A,1844.235,N,09901.808,E,038.9,157.0,030417,000.0,W*7F
$GPGGA,030030.540,1844.225,N,09901.812,E,1,12,1.0,0.0,M,0.0,M,,*69
$GPGSA,A,3,01,02,03,04,05,06,07,08,09,10,11,12,1.0,1.0,1.0*30
$GPRMC,030030.540,A,1844.225,N,09901.812,E,038.9,157.0,030417,000.0,W*7D
$GPGGA,030031.540,1844.215,N,09901.817,E,1,12,1.0,0.0,M,0.0,M,,*6E
$GPGSA,A,3,01,02,03,04,05,06,07,08,09,10,11,12,1.0,1.0,1.0*30
$GPRMC,030031.540,A,1844.215,N,09901.817,E,038.9,157.0,030417,000.0,W*7A
$GPGGA,030032.540,1844.205,N,09901.821,E,1,12,1.0,0.0,M,0.0,M,,*69
$GPGSA,A,3,01,02,03,04,05,06,07,08,09,10,11,12,1.0,1.0,1.0*30
$GPRMC,030032.540,A,1844.205,N,09901.821,E,038.9,157.0,030417,000.0,W*7D
$GPGGA,030033.540,1844.195,N,09901.825,E,1,12,1.0,0.0,M,0.0,M,,*66
$GPGSA,A,3,01,02,03,04,05,06,07,08,09,10,11,12,1.0,1.0,1.0*30
$GPRMC,030033.540,A,1844.195,N,09901.825,E,038.9,157.0,030417,000.0,W*72
$GPGGA,030034.540,1844.185,N,09901.829,E,1,12,1.0,0.0,M,0.0,M,,*6C
$GPGSA,A,3,01,02,03,04,05,06,07,08,09,10,11,12,1.0,1.0,1.0*30
$GPRMC,030034.540,A,1844.185,N,09901.829,E,038.9,157.0,030417,000.0,W*78
$GPGGA,030035.540,1844.175,N,09901.834,E,1,12,1.0,0.0,M,0.0,M,,*6E
$GPGSA,A,3,01,02,03,04,05,06,07,08,09,10,11,12,1.0,1.0,1.0*30
$GPRMC,030035.540,A,1844.175,N,09901.834,E,038.9,157.0,030417,000.0,W*7A
$GPGGA,030036.540,1844.165,N,09901.838,E,1,12,1.0,0.0,M,0.0,M,,*60
$GPGSA,A,3,01,02,03,04,05,06,07,08,09,10,11,12,1.0,1.0,1.0*30
$GPRMC,030036.540,A,1844.165,N,09901.838,E,038.9,157.0,030417,000.0,W*74
$GPGGA,030037.540,1844.155,N,09901.842,E,1,12,1.0,0.0,M,0.0,M,,*6F
$GPGSA,A,3,01,02,03,04,05,06,07,08,09,10,11,12,1.0,1.0,1.0*30
$GPRMC,030037.540,A,1844.155,N,09901.842,E,038.9,157.0,030417,000.0,W*7B
$GPGGA,030038.540,1844.145,N,09901.846,E,1,12,1.0,0.0,M,0.0,M,,*65
$GPGSA,A,3,01,02,03,04,05,06,07,08,09,10,11,12,1.0,1.0,1.0*30
$GPRMC,030038.540,A,1844.145,N,09901.846,E,038.9,157.0,030417,000.0,W*71
$GPGGA,030039.540,1844.135,N,09901.851,E,1,12,1.0,0.0,M,0.0,M,,*65
$GPGSA,A,3,01,02,03,04,05,06,07,08,09,10,11,12,1.0,1.0,1.0*30
$GPRMC,030039.540,A,1844.135,N,09901.851,E,038.9,157.0,030417,000.0,W*71
$GPGGA,030040.540,1844.125,N,09901.855,E,1,12,1.0,0.0,M,0.0,M,,*6E
$GPGSA,A,3,01,02,03,04,05,06,07,08,09,10,11,12,1.0,1.0,1.0*30
$GPRMC,030040.540,A,1844.125,N,09901.855,E,038.9,157.0,030417,000.0,W*7A
$GPGGA,030041.540,1844.115,N,09901.859,E,1,12,1.0,0.0,M,0.0,M,,*60
$GPGSA,A,3,01,02,03,04,05,06,07,08,09,10,11,12,1.0,1.0,1.0*30
$GPRMC,030041.540,A,1844.115,N,09901.859,E,038.9,157.0,030417,000.0,W*74
$GPGGA,030042.540,1844.104,N,09901.864,E,1,12,1.0,0.0,M,0.0,M,,*6D
$GPGSA,A,3,01,02,03,04,05,06,07,08,09,10,11,12,1.0,1.0,1.0*30
$GPRMC,030042.540,A,1844.104,N,09901.864,E,038.9,157.0,030417,000.0,W*79
$GPGGA,030043.540,1844.094,N,09901.868,E,1,12,1.0,0.0,M,0.0,M,,*68
$GPGSA,A,3,01,02,03,04,05,06,07,08,09,10,11,12,1.0,1.0,1.0*30
$GPRMC,030043.540,A,1844.094,N,09901.868,E,038.9,157.0,030417,000.0,W*7C
$GPGGA,030044.540,1844.084,N,09901.872,E,1,12,1.0,0.0,M,0.0,M,,*65
$GPGSA,A,3,01,02,03,04,05,06,07,08,09,10,11,12,1.0,1.0,1.0*30
$GPRMC,030044.540,A,1844.084,N,09901.872,E,038.9,157.0,030417,000.0,W*71
$GPGGA,030045.540,1844.074,N,09901.876,E,1,12,1.0,0.0,M,0.0,M,,*6F
$GPGSA,A,3,01,02,03,04,05,06,07,08,09,10,11,12,1.0,1.0,1.0*30
$GPRMC,030045.540,A,1844.074,N,09901.876,E,038.9,157.3,030417,000.0,W*78
$GPGGA,030046.540,1844.064,N,09901.880,E,1,12,1.0,0.0,M,0.0,M,,*64
$GPGSA,A,3,01,02,03,04,05,06,07,08,09,10,11,12,1.0,1.0,1.0*30
$GPRMC,030046.540,A,1844.064,N,09901.880,E,038.9,157.3,030417,000.0,W*73
$GPGGA,030047.540,1844.054,N,09901.885,E,1,12,1.0,0.0,M,0.0,M,,*63
$GPGSA,A,3,01,02,03,04,05,06,07,08,09,10,11,12,1.0,1.0,1.0*30
$GPRMC,030047.540,A,1844.054,N,09901.885,E,038.9,157.3,030417,000.0,W*74
$GPGGA,030048.540,1844.044,N,09901.889,E,1,12,1.0,0.0,M,0.0,M,,*61
$GPGSA,A,3,01,02,03,04,05,06,07,08,09,10,11,12,1.0,1.0,1.0*30
$GPRMC,030048.540,A,1844.044,N,09901.889,E,038.9,157.3,030417,000.0,W*76
$GPGGA,030049.540,1844.034,N,09901.893,E,1,12,1.0,0.0,M,0.0,M,,*6C
$GPGSA,A,3,01,02,03,04,05,06,07,08,09,10,11,12,1.0,1.0,1.0*30
$GPRMC,030049.540,A,1844.034,N,09901.893,E,038.9,157.3,030417,000.0,W*7B
$GPGGA,030050.540,1844.024,N,09901.897,E,1,12,1.0,0.0,M,0.0,M,,*61
$GPGSA,A,3,01,02,03,04,05,06,07,08,09,10,11,12,1.0,1.0,1.0*30
$GPRMC,030050.540,A,1844.024,N,09901.897,E,038.9,157.3,030417,000.0,W*76
$GPGGA,030051.540,1844.014,N,09901.901,E,1,12,1.0,0.0,M,0.0,M,,*6D
$GPGSA,A,3,01,02,03,04,05,06,07,08,09,10,11,12,1.0,1.0,1.0*30
$GPRMC,030051.540,A,1844.014,N,09901.901,E,038.9,157.3,030417,000.0,W*7A
